#Network|Station|Latitude|Longitude|Elevation|SiteName|StartTime|EndTime
XT|NAQA|-17.964245|178.388107|83.0|Naqila|2001-07-25T03:49:39|2002-12-31T23:59:59
XO|ROTA|14.148126|145.186554|528.0|Rota|2003-05-10T07:09:04|2004-12-31T23:59:59
IM|PSA00|-21.5725|119.845802|305.0|Pilbara Seismic Array Beam|2011-01-01T00:00:00|2599-12-31T23:59:59
IA|OBMI|-1.3413|127.6444|110.89|Station Pulau, BMG, Indonesia|2012-01-01T00:00:00|2599-12-31T23:59:59
ZB|RTMD|-2.9616|101.472801|39.0|Desa Retak Mudik|2007-12-17T00:00:00|2008-10-19T23:00:00
AU|GEXS|-38.200802|144.289993|10.0|Deakin UNI JUMP, GEELONG Victoria|2013-03-26T00:00:00|2599-12-31T23:59:59
GE|UGM|-7.9125|110.5231|350.0|GEOFON Station Wanagama, Indonesia|1995-08-23T00:00:00|2599-12-31T23:59:59
AU|PSAC3|-21.621359|119.827744|352.0|Pilbara Seismic Array Element C3|2011-01-01T00:00:00|2599-12-31T23:59:59
1U|HNTY|-37.5777|175.1034|69.0|Huntly|2023-01-01T00:00:00|2025-12-31T23:59:59
AU|TROP|-29.2151|124.4794|343.0|GSWA station|2023-02-09T00:00:00|2599-12-31T23:59:59
G|NOUC|-22.09863|166.30665|137.0|Port Laguerre - New Caledonia, France|1988-03-21T00:00:00|2599-12-31T23:59:59
PS|JAY|-2.5147|140.703|439.0|Jayapura, Indonesia|1997-12-17T00:00:00|2599-12-31T23:59:59
XO|SAP6|15.125788|145.740891|122.0|Saipan 6|2003-05-03T04:52:46|2004-12-31T23:59:59
PS|TGY|14.1|120.940002|0.0|Tagaytay, Phillipines|1992-02-26T00:00:00|1998-03-20T00:00:00
YC|SBA5|4.42271|116.85881|426.0|First|2018-03-20T03:35:00|2019-08-30T23:25:00
S1|AUBSH|-26.864|152.9547|26.0|Beerwah State High School|2013-08-26T00:00:00|2599-12-31T23:59:59
YW|SING1|-32.695183|151.020918|92.0|Milbrodale|2025-04-24T00:00:00|2025-12-31T23:59:59
IA|TNGI|-6.172|106.647|75.0|Station Tangerang, Indonesia (CN)|2006-01-01T00:00:00|2599-12-31T23:59:59
AU|KMBL|-31.3669|121.8821|370.0|Kambalda, WA|2000-11-27T00:00:00|2599-12-31T23:59:59
YC|SBE3|6.06708|116.830971|325.0|Ranau|2018-03-23T06:10:00|2020-01-08T08:40:00
YO|MATT4|-39.13797|174.568604|140.0|MATT4|2001-10-01T00:00:00|2002-01-31T04:45:00
IA|KMMI|-7.0412|113.9157|49.14|Station Kalianget, Indonesia|2006-01-01T00:00:00|2599-12-31T23:59:59
ZB|LIKU|-1.7457|100.800301|27.0|200-50-10-05|2007-12-21T00:00:00|2008-10-19T23:00:00
AU|RK2S|-23.3102|150.521606|36.0|Rockhampton 2 Soft Rock JUMP, QLD|2008-12-10T00:00:00|2599-12-31T23:59:59
IA|WSI|-9.6689|120.297666|48.0|Station Waingapu, JISNET Indonesia|2005-01-01T00:00:00|2599-12-31T23:59:59
XC|DENA|-41.7449|171.805298|669.0|Denniston|1995-11-11T02:11:17|1996-12-31T23:59:59
AU|WB9|-19.791389|134.383972|360.0|Warramunga Array, Australia|1999-07-01T00:00:00|2599-12-31T23:59:59
ZU|NZ26|-46.997898|174.498398|-1316.0|SIO_OBS_ID: 121|2009-02-15T00:00:00|2010-02-11T23:59:59
XD|PGOB|-7.526502|110.45359|2243.0|Pogog|2001-01-27T05:28:58|2001-12-31T23:59:59
S1|AUMTS|-35.3188|148.9964|667.0|Mt Stromlo|2011-09-01T02:22:00|2599-12-31T23:59:59
YC|SBB7|4.96355|117.802818|197.0|Danum|2018-03-14T05:00:00|2020-01-11T03:00:00
GE|CISI|-7.5557|107.8153|544.0|GEOFON Station GEOFON Station Cisomped, Java|2008-07-21T00:00:00|2599-12-31T23:59:59
IA|KHK|-8.36404|115.60964|220.0|Station Kahang-Kahang, Bali|2007-04-03T00:00:00|2599-12-31T23:59:59
IA|LHSI|-3.8267|103.5233|183.68|Station Lahat, Sumatra|2008-01-01T00:00:00|2599-12-31T23:59:59
XF|SAIP|15.2149|145.751907|273.0|CNMI SAIP, Land Sta|2012-02-23T00:00:00|2013-02-15T23:59:59
YS|HADA|-8.3722|123.5454|29.0|Hadakewa village, central Lembata Island Indonesia|2014-11-01T00:00:00|2016-12-31T23:59:59
GE|TOLI2|1.11119|120.78174|51.0|GEOFON Station Tolitoli, Sulawesi, Indonesia|2012-07-13T00:00:00|2599-12-31T23:59:59
ZU|NZ25|-45.997799|174.750397|-1727.0|SIO_OBS_ID: 117|2009-02-15T00:00:00|2010-02-12T23:59:59
YO|TIRT4|-39.514709|174.333267|120.0|TIRT4|2001-10-01T00:00:00|2002-02-01T00:30:00
YS|SINA|-8.1838|122.9124|5.0|Sinamalaka village, ne Flores Island Indonesia|2014-10-29T00:00:00|2016-12-31T23:59:59
ZB|PDRK|-1.44|101.359596|320.0|Padang Darek|2007-12-09T00:00:00|2008-10-19T23:00:00
Z1|MOAL|-18.566299|179.951599|9.0|Moala, Lau Is., Fiji|2009-10-28T00:00:00|2010-12-31T23:59:59
AU|PSAA3|-21.578085|119.854874|315.0|Pilbara Seismic Array Element A3|2011-01-01T00:00:00|2599-12-31T23:59:59
XT|TKK|7.4472|151.886902|1.0|Chuuk Micronesia|1994-01-09T00:50:56|1996-12-31T23:59:59
AU|CTA|-20.0876|146.25|426.0|Charters Towers, Queensland|1994-10-20T00:00:00|2599-12-31T23:59:59
AU|FORT|-30.779|128.059|165.0|Forrest, WA|1994-01-01T00:00:00|2599-12-31T23:59:59
Z1|KDVU|-19.046499|178.165695|83.0|Kadavu, Fiji|2009-10-29T00:00:00|2010-12-31T23:59:59
7B|SB01|-25.792299|139.588699|0.0|QUEENSLAND, AUSTRALIA|1993-11-19T00:18:33|1994-01-28T23:08:34
ZU|NZ16|-41.749901|169.2491|-1063.0|SIO_OBS_ID: 096|2009-02-06T00:00:00|2010-01-30T23:59:59
XO|SAP3|15.18375|145.746567|410.0|Saipan 3|2003-05-03T07:57:41|2004-12-31T23:59:59
ZN|KAPU|-9.2864|150.780304|11.0|Kapukapuna_Mission, Papua New Guinea|2010-03-13T00:00:00|2011-12-31T23:59:59
3B|WYKM6|-31.21884|117.6336|352.0|3B-WYKM6|2024-08-22T00:00:00|2025-01-16T00:00:00
AU|KDU|-12.6869|132.472702|46.0|Kakadu, NT|2008-11-27T00:00:00|2599-12-31T23:59:59
XU|POKA|-45.785702|170.541504|270.0|Peter Koons House|1996-11-14T06:14:14|1996-12-04T01:16:59
Z6|OH05|-9.7629|111.1027|-2824.0|Station OH05, Indonesia|2004-05-02T00:00:00|2004-10-03T00:00:00
ZU|NZ21|-39.5005|170.000107|-676.0|SIO_OBS_ID: 080|2009-02-08T00:00:00|2010-01-27T23:59:59
YY|OBS02|16.899799|146.550095|-3492.0|LDEO OBS02|2003-06-21T00:00:00|2003-07-31T23:59:59
YC|SBF2|6.47376|116.890694|396.0|Kg.|2018-03-09T05:30:00|2020-01-08T10:10:00
YY|OBS19|17.8577|145.716904|-2882.0|LDEO OBS19|2003-06-22T00:00:00|2004-05-07T23:59:59
IA|KBKI|-3.2995|116.1668|65.0|Station Kotabaru, Kalimantan|2008-01-01T00:00:00|2599-12-31T23:59:59
XB|MORB|-41.5695|172.910599|397.0|-|2001-12-24T00:00:00|2002-12-31T23:59:59
7B|SA07|-26.0327|146.781693|0.0|QUEENSLAND, AUSTRALIA|1993-05-17T03:26:31|1993-10-02T08:20:29
ND|KOUNC|-20.5507|164.2861|88.0|Koumac|2011-03-17T00:00:00|2500-12-31T23:59:59
IA|RAPI|-0.4102|130.8211|108.6|Station RAPI|2006-01-01T00:00:00|2599-12-31T23:59:59
AU|PSAA2|-21.562828|119.846695|330.0|Pilbara Seismic Array Element A2|2011-01-01T00:00:00|2599-12-31T23:59:59
XB|SUVA|-18.1147|178.453598|50.0|Suva, Fiji|1994-03-02T02:06:09|1995-12-31T23:59:59
ZN|AGAN|-9.9312|149.388107|1001.0|Agaun, Papua New Guinea|2010-03-25T00:00:00|2011-12-31T23:59:59
Z6|OH11|-9.0587|110.7899|-3224.0|Station OH11, Indonesia|2004-05-03T00:00:00|2004-10-03T00:00:00
S1|AUWSH|-27.3977|153.0372|60.0|Wavell State High School|2013-06-24T00:00:00|2599-12-31T23:59:59
XB|WAG00|-42.066799|172.930801|942.0|-|2001-04-17T00:00:00|2002-12-31T23:59:59
ND|LIFNC|-20.7771|167.2402|33.0|Lifou|2010-08-28T00:00:00|2500-12-31T23:59:59
IA|BBKI|-3.4625|114.8411|109.88|Station Banjar Baru, Kalimantan|2007-01-01T00:00:00|2599-12-31T23:59:59
YS|MTNG|-8.2969|125.1025|108.0|Maritaeng village, e Alor Island Indonesia|2014-11-12T00:00:00|2016-12-31T23:59:59
IA|PKKI|-2.2411|113.9722|65.0|Station Palangkaraya, Kalimantan, BMG, Indonesia|2007-01-01T00:00:00|2599-12-31T23:59:59
IA|MJSI|-3.5008|118.9149|306.8|Station Majene, Sulawesi|2007-01-01T00:00:00|2010-04-20T00:00:00
IA|SMPI|-1.981002|138.71|111.0|Station Sarmi, Irian Jaya|2008-01-01T00:00:00|2599-12-31T23:59:59
Z6|OS02|-9.1901|109.5366|-3135.0|Station OS02, Indonesia|2004-05-02T00:00:00|2004-10-02T00:00:00
XD|BBU|-9.376595|150.362061|137.0|Bolu Bolu, Goodenough Island|1999-07-20T04:54:02|2000-12-31T23:59:59
YO|BAYT4|-39.248638|173.776047|14.0|BAYT4|2001-10-01T00:00:00|2002-02-01T01:50:00
YW|MSWL5|-32.284211|150.78612|271.0|Rapid deployment kit|2024-09-17T00:00:00|2025-12-25T23:59:59
ZN|H|-8.9998|149.667694|-557.0|SIO OBS ID H|2010-03-03T00:00:00|2011-01-27T23:59:59
NZ|FWVZ|-39.254945374|175.55295183|2043.0|Far West|1999-05-11T00:00:00|2599-12-31T23:59:59
XQ|4990|-38.696499|176.184204|482.5|4990|2002-07-23T00:00:00|2002-11-02T00:00:00
IA|LEM|-6.8266|107.61756|1293.0|Station Lembang, Indonesia|2005-01-01T00:00:00|2599-12-31T23:59:59
ZN|PMNI|-9.7562|149.467102|160.0|Pumani, Papua New Guinea|2010-03-26T00:00:00|2011-12-31T23:59:59
IA|MTKI|-0.9418|114.8959|100.11|Station Muara Teweh, Kalimantan, Indonesia (BMKG)|2008-06-21T00:00:00|2599-12-31T23:59:59
IA|KASI|-5.5236|104.4967|50.0|Station Kota Agung, Sumatra|2008-01-01T00:00:00|2599-12-31T23:59:59
7B|SB08|-37.4328|141.975693|0.0|QUEENSLAND, AUSTRALIA|1993-11-25T05:07:59|1994-04-14T02:09:15
S1|AUDHS|-12.44|130.833|26.0|Darwin High School|2013-08-26T00:00:00|2599-12-31T23:59:59
ZN|SIRI|-9.8439|149.708801|22.0|Siri_Siri, Papua New Guinea|2010-03-14T00:00:00|2011-12-31T23:59:59
AU|WR3|-19.948503|134.386917|376.5|Warramunga Array, Australia|1999-07-01T00:00:00|2599-12-31T23:59:59
ND|PIENC|-20.93877|167.21797|35.0|Pie|2018-07-24T00:00:00|2020-07-29T04:45:00
IA|KRK|-8.1521|112.4506|330.26|Station Karangkates, Indonesia|2006-01-01T00:00:00|2599-12-31T23:59:59
XC|JACA|-43.9688|168.609406|0.0|Jackson Head|1995-11-15T22:38:25|1996-12-31T23:59:59
IA|CNJI|-7.309|107.1296|589.0|Station Cibinong, Java|2008-01-01T00:00:00|2599-12-31T23:59:59
S1|AUTKS|-33.7846|151.0254|95.0|The King's School|2014-02-27T00:00:00|2599-12-31T23:59:59
XQ|4580|-38.948002|176.513199|695.5|4580|2002-07-21T00:00:00|2002-11-01T00:00:00
YY|OBS52|19.450399|145.600098|-2475.0|LDEO OBS52|2003-06-17T00:00:00|2003-07-31T23:59:59
IA|NGJI|-7.3676|111.4612|149.0|Station Ngawi, Java|2008-01-01T00:00:00|2599-12-31T23:59:59
ZU|NZ04|-41.999298|165.502396|-4470.0|SIO_OBS_ID: 142|2009-02-02T00:00:00|2010-02-06T23:59:59
7B|SA05|-23.2005|144.272293|0.0|QUEENSLAND, AUSTRALIA|1993-05-15T23:45:57|1993-10-03T01:02:58
ZN|WANI|-9.3378|149.154694|23.0|Wanigela, Papua New Guinea|2010-03-17T00:00:00|2011-12-31T23:59:59
2O|BTL09|-16.25895|134.86316|178.0|Tanumbirini, NT|2021-08-28T00:00:00|2025-12-31T00:00:00
AU|GHSS|-34.919399|138.6017|42.0|Government House JUMP, SA|2009-01-01T00:00:00|2599-12-31T23:59:59
XC|HOKA|-42.7411|171.091507|240.0|Hokitika|1995-11-13T04:03:29|1996-12-31T23:59:59
ZN|G|-9.3332|149.666794|-555.0|SIO OBS ID G|2010-03-03T00:00:00|2011-01-27T23:59:59
YC|SBC1|5.28108|115.174759|30.0|UMS|2018-03-24T05:30:00|2020-01-16T02:45:00
S1|AUMHS|-35.3635|149.0888|615.0|Melrose High School|2012-04-11T00:00:00|2599-12-31T23:59:59
S1|AUJCS|-33.2047|138.6098|464.0|Jamestown Community School|2013-08-23T00:00:00|2599-12-31T23:59:59
YO|WAIT4|-39.409569|173.945587|175.0|WAIT4|2001-10-01T00:00:00|2002-02-01T07:00:00
AU|WRKA|-25.0375|128.296097|622.0|Warrakurna, Western Australia|2009-04-26T00:00:00|2599-12-31T23:59:59
Z6|OS09|-9.1522|110.0287|-3302.0|Station OS09, Indonesia|2004-05-02T00:00:00|2004-10-02T00:00:00
ZN|JONE|-10.0946|150.102402|16.0|Wamira, Papua New Guinea|2010-03-13T00:00:00|2011-12-31T23:59:59
XQ|4860|-38.800598|176.254395|731.5|4860B|2002-07-18T00:00:00|2002-11-02T00:00:00
IA|PPBI|-2.1616|106.1364|63.55|Station Pangkal Pinang, Bangka|2007-01-01T00:00:00|2599-12-31T23:59:59
MI|DPS|15.24082|145.78909|144.0|HUB|2011-03-20T00:00:00|2599-12-31T23:59:59
AU|RABL|-4.1912|152.163696|277.0|Rabaul, Papua New Guinea|2009-04-26T00:00:00|2599-12-31T23:59:59
XD|ECP|-10.227249|150.875366|97.0|East Cape, Main land PNG|1999-08-05T05:38:04|2000-12-31T23:59:59
YY|OBS10|17.561399|143.196396|-2418.0|LDEO OBS11|2003-06-23T00:00:00|2003-08-10T23:59:59
IA|DNP|-8.6774|115.2097|63.88|Station Denpasar, Indonesia|2006-01-01T00:00:00|2599-12-31T23:59:59
YW|MSWL1|-32.26486|150.90709|251.0|YW-MSWL1|2024-08-26T00:00:00|2025-12-31T23:59:59
MY|KSM|1.4733|110.308296|66.0|Kuching|2005-02-17T00:00:00|2599-12-31T23:59:59
YY|OBS49|17.959499|145.798996|-2287.0|LDEO OBS49|2003-06-22T00:00:00|2004-05-09T23:59:59
7E|KB10|-17.560699|124.829803|277.0|QUEENSLAND, AUSTRALIA|1998-05-26T03:28:54|1998-07-25T02:09:54
7B|SC06|-19.1437|128.117905|0.0|QUEENSLAND, AUSTRALIA|1994-06-01T00:14:08|1994-10-17T03:17:48
S1|AUKSC|-37.9684|145.1584|50.0|Keysborough Secondary College|2013-05-24T00:00:00|2599-12-31T23:59:59
IA|BNSI|-4.4006|120.1065|261.0|Station Bone, Sulawesi|2008-01-01T00:00:00|2599-12-31T23:59:59
YC|SBE1|6.20282|115.596382|8.0|Palau|2018-03-25T04:15:00|2020-01-19T02:15:00
ZN|GUMA|-9.2247|150.8703|19.0|Gumawana, Papua New Guinea|2010-03-14T00:00:00|2011-12-31T23:59:59
IA|MSSI|-2.5547|120.3241|116.0|Station Masamba, Sulawesi|2007-01-01T00:00:00|2008-12-22T00:00:00
7B|SC04|-16.605499|133.307495|0.0|QUEENSLAND, AUSTRALIA|1994-05-24T06:48:47|1994-08-29T10:48:40
1U|HIK|-37.079043|175.764505|116.0|Hikuai|2023-01-01T00:00:00|2025-12-31T23:59:59
ZB|PKNN|-1.5843|101.145302|925.0|Jorong Pekonina|2007-12-08T00:00:00|2008-10-19T23:00:00
IA|EGSI|-5.3526|102.2767|35.73|Station Enggano, Bengkulu, Indonesia (BMKG)|2009-01-01T00:00:00|2599-12-31T23:59:59
XC|TIMA|-44.3825|171.078903|243.0|Timaru|1995-11-14T01:14:58|1996-04-07T23:59:59
IA|GLMI|1.8381|127.7879|130.21|Station Galela, Maluku, Indonesia (BMKG)|2009-01-01T00:00:00|2599-12-31T23:59:59
XP|0340|-39.140499|176.628998|500.0|Te-Harota|1994-01-01T00:00:00|1995-04-11T00:00:00
S1|AUNHS|-12.1874|136.7832|20.0|Nhulunbuy High School|2013-08-28T00:00:00|2599-12-31T23:59:59
IU|MBWA|-21.159|119.7313|190.0|Marble Bar, Western Australia|2001-08-25T00:00:00|2599-12-31T23:59:59
YY|OBS50|18.0984|145.616104|-2339.0|LDEO OBS50|2003-06-21T00:00:00|2003-07-31T23:59:59
ZB|S30S|0.10308|100.729782|129.0|200-50-25-05-ok|2008-07-04T04:54:19|2008-10-22T07:54:00
AU|RMQ|-26.489|148.755005|360.0|Roma, QLD|2004-11-22T21:00:00|2599-12-31T23:59:59
7B|SB04|-29.3367|145.006104|0.0|QUEENSLAND, AUSTRALIA|1993-11-16T01:41:43|1993-12-08T11:12:59
3B|WYKM4|-31.3109|117.7141|349.0|3B-WYKM4|2024-08-22T00:00:00|2025-01-16T00:00:00
ZU|NZ01|-44.4981|165.001602|-4682.0|SIO_OBS_ID: 116|2009-01-31T00:00:00|2010-02-04T23:59:59
YY|OBS33|17.9072|144.199799|-3847.0|LDEO OBS33|2003-06-12T00:00:00|2004-05-02T23:59:59
XQ|9002|-38.604099|175.868805|537.5|9002|2002-07-26T00:00:00|2002-11-03T00:00:00
XB|5MI00|-42.334801|172.995499|768.0|-|2001-12-24T00:00:00|2002-12-31T23:59:59
XU|LATA|-42.781101|172.268997|640.0|Lake Taylor|1996-04-07T00:00:00|1997-12-31T23:59:59
XD|SEHB|-9.969559|151.161591|84.0|Sehulea (Airstrip), Normanby Island|1999-07-20T07:56:37|2000-12-31T23:59:59
AU|PSAC2|-21.562519|119.900436|330.0|Pilbara Seismic Array Element C2|2011-01-01T00:00:00|2599-12-31T23:59:59
S1|AUBRN|-41.0405|145.8684|10.0|Burnie High School|2017-07-06T00:00:00|2599-12-31T23:59:59
7D|KA07|-18.182199|124.077721|180.0|QUEENSLAND, AUSTRALIA|1997-07-25T05:25:15|1997-10-10T22:06:00
YC|SBB2|4.79788|115.699127|997.0|Kg|2018-03-24T01:05:00|2020-01-16T03:50:00
TM|PANO|17.147614|104.6122|168.0|Huai Kan, Nakhon Phanom|2009-01-01T00:00:00|2599-12-31T23:59:59
7B|SC10|-25.190001|133.324097|0.0|QUEENSLAND, AUSTRALIA|1994-08-09T03:59:04|1994-10-19T13:59:04
Z6|OS07|-9.5096|110.722|-987.0|Station OS07, Indonesia|2004-05-02T00:00:00|2004-10-02T00:00:00
IA|SNJI|-7.78|111.759|1341.0|Station Sawahan, Indonesia (JISNET)|2006-01-01T00:00:00|2599-12-31T23:59:59
ZU|NZ27|-46.500702|173.249695|-1544.0|SIO_OBS_ID: 123|2009-02-16T00:00:00|2010-02-11T23:59:59
IA|STKI|0.0656|111.4772|87.78|Station Sintang, Kalimantan|2007-01-01T00:00:00|2599-12-31T23:59:59
PS|VIVO|18.6498|105.6965|10.0|Vinh, Vietnam|2009-08-01T00:00:00|2599-12-31T23:59:59
YO|EDUT4|-39.239578|174.160477|437.0|EDUT4|2001-10-01T00:00:00|2002-01-31T21:20:00
AU|MUN|-31.9783|116.208298|253.0|Mundaring, Western Australia|2001-05-31T00:00:00|2599-12-31T23:59:59
XO|GUGU|17.311577|145.833359|80.0|Guguan|2003-05-07T08:16:45|2004-12-31T23:59:59
S1|AUMBR|-35.134|139.2859|50.0|Murray Bridge High School|2016-06-20T00:00:00|2599-12-31T23:59:59
PS|PATS|6.8367|158.315201|10.0|Pohnpei, Micronesia|1993-04-01T00:00:00|2599-12-31T23:59:59
AU|WB4|-19.903646|134.358932|380.6|Warramunga Array, Australia|1999-07-01T00:00:00|2599-12-31T23:59:59
ZB|C30S|-0.05458|100.219254|600.0|NO-secondary-sample-rate-Height-from-SRTM|2008-06-25T00:00:00|2008-10-26T00:00:00
ZI|ROUX|-22.342365|166.7227|12.6|ROUX|2018-10-22T01:47:01|2019-11-14T02:35:04
YO|STAT4|-39.317291|174.352325|230.0|STAT4|2001-10-01T00:00:00|2002-02-01T20:00:00
ZN|SAGI|-10.4376|150.151306|14.0|Sagarai, Papua New Guinea|2010-03-29T00:00:00|2011-12-31T23:59:59
AU|GIRL|-22.643|114.234001|111.0|Giralia, WA|1995-09-04T00:00:00|2599-12-31T23:59:59
Z6|OH01|-8.4935|109.4506|-2213.0|Station OH01, Indonesia|2004-05-02T00:00:00|2004-10-02T00:00:00
IA|KLSI|-4.6871|104.732|88.0|Station Kotabumi, Indonesia (CN)|2006-01-01T00:00:00|2599-12-31T23:59:59
Z6|OH14|-8.6346|110.3765|-1093.0|Station OH14, Indonesia|2004-05-03T00:00:00|2004-10-03T00:00:00
ZN|J|-8.8702|149.933502|-508.0|SIO OBS ID J|2010-03-03T00:00:00|2011-01-28T23:59:59
XP|0377|-38.7094|176.001999|480.0|Acacia|1994-01-01T00:00:00|1995-04-11T00:00:00
XU|LU2A|-45.036167|169.704742|359.3|Lauder, New Zealand 2nd site|1996-01-01T00:00:00|1997-12-31T23:59:59
MI|ANLB|16.3653|145.646|190.0|ANSW, Northern Marianas Islands|2011-06-01T00:00:00|2599-12-31T23:59:59
MI|ANSV|16.3417|145.6734|390.0|ANSW, Northern Marianas Islands|2000-01-01T00:00:00|2599-12-31T23:59:59
7B|SD10|-32.843601|136.065704|0.0|QUEENSLAND, AUSTRALIA|1995-03-31T07:38:36|1995-06-03T06:48:38
AU|NWAO|-32.9277|117.239|265.0|Narrogin, Western Australia|1994-01-01T00:00:00|2599-12-31T23:59:59
GE|GENI|-2.5927|140.1678|47.0|GEOFON Station Genyem, Irian Jaya Indonesia|2009-11-26T00:00:00|2599-12-31T23:59:59
1U|BMB|-37.191733|174.989542|243.0|Bombay Hill|2023-01-01T00:00:00|2025-12-31T23:59:59
XB|RTN00|-42.190102|172.948303|1003.0|-|2001-12-20T00:00:00|2002-12-31T23:59:59
XO|TIN2|14.995033|145.612961|133.0|Tinian 2|2003-05-15T02:36:20|2004-12-31T23:59:59
ND|OUENC|-22.4183|166.8416|115.0|île Ouen|2010-08-09T00:00:00|2500-12-31T23:59:59
IA|BAKI|-1.19145|136.10702|89.0|Station Biak, Indonesia|2005-01-01T00:00:00|2599-12-31T23:59:59
AU|MILA|-37.0547|149.155|785.0|Mila, NSW|2006-04-11T00:00:00|2599-12-31T23:59:59
YC|SBD6|5.6875|117.658997|32.0|Kam|2018-03-12T03:45:00|2020-01-10T02:20:00
IU|TARA|1.3549|172.9229|20.0|Tarawa Island, Republic of Kiribati|2007-01-01T00:00:00|2599-12-31T23:59:59
YS|GREG|-10.8919|122.8225|5.0|Nemberala village, sw Rote Island Indonesia|2014-10-03T00:00:00|2016-12-31T23:59:59
3B|WYKM3|-31.25718|117.54784|287.0|3B-WYKM3|2024-08-22T00:00:00|2025-01-16T00:00:00
ZU|NZ23|-45.149399|174.852005|-1091.0|SIO_OBS_ID: 126|2009-02-12T00:00:00|2010-02-12T23:59:59
IA|NLAI|-3.239|127.0998|101.92|Station Namlea, Ambon|2008-01-01T00:00:00|2599-12-31T23:59:59
ZB|LUNG|-2.2853|101.155602|53.0|Lunang|2007-11-30T00:00:00|2008-10-19T23:00:00
IA|MNI|1.44397|124.83998|191.0|Station Manado, Sulawesi|2005-01-01T00:00:00|2599-12-31T23:59:59
AU|CNB|-35.314999|149.363297|853.0|Kowen Forrest, Australian Capital Territory|2007-08-01T00:00:00|2599-12-31T23:59:59
XC|LATA|-42.781101|172.268997|640.0|Lake Taylor|1995-11-15T03:53:08|1996-12-31T23:59:59
XQ|6080|-38.666698|176.088501|386.0|Gun Club|2002-06-16T00:00:00|2002-11-04T00:00:00
YY|OBS26|18.162399|148.497894|-5923.0|LDEO OBS26|2003-06-19T00:00:00|2003-07-01T23:59:59
AD|DLV|11.952|108.481499|50.0|Dalat Central Vietnam|2015-05-07T00:00:00|2599-12-31T23:59:59
1U|TAP|-36.978135|175.258845|81.0|TÄpapakanga Regional Park|2023-01-01T00:00:00|2025-12-31T23:59:59
5A|BUKA|-5.41187|154.681198|39.0|BUKA BOUGAINVILLE|2014-11-17T00:42:00|2016-08-20T00:00:00
IA|TMSI|1.2948|124.92|771.0|Station TMSI|2013-01-01T00:00:00|2599-12-31T23:59:59
ZN|WAIB|-9.2442|150.138306|12.0|Waibula, Papua New Guinea|2010-03-19T00:00:00|2011-12-31T23:59:59
XP|0372|-39.437401|176.804001|100.0|Napier|1994-01-01T00:00:00|1995-04-11T00:00:00
AU|WC1|-19.924335|134.33905|392.0|Warramunga Array, Australia|1999-07-01T00:00:00|2599-12-31T23:59:59
S1|AUAYR|-19.5774|147.4088|13.0|Ayr State High School|2013-08-26T00:00:00|2599-12-31T23:59:59
XT|TAGA|-18.194689|177.664551|68.0|Taga|2001-08-25T05:01:30|2002-12-31T23:59:59
ZU|NZ07|-40.250099|169.000305|-852.0|SIO_OBS_ID: 115|2009-02-03T00:00:00|2010-01-29T23:59:59
7B|SB05|-31.878901|141.595306|0.0|QUEENSLAND, AUSTRALIA|1993-11-21T07:26:36|1994-01-31T02:07:36
AU|PSAC1|-21.533709|119.809319|303.0|Pilbara Seismic Array Element C1|2011-01-01T00:00:00|2599-12-31T23:59:59
ZB|B10S|0.31413|100.107468|303.0|NO-secondary-sample-rate|2008-09-15T00:00:00|2008-10-22T04:40:29
AU|WR1|-19.942589|134.339508|388.8|Warramunga Array, Australia|1999-07-01T00:00:00|2599-12-31T23:59:59
S1|AUPKL|-41.0809|145.9011|171.0|Parklands High School|2016-11-25T00:00:00|2599-12-31T23:59:59
XC|LU2A|-45.036171|169.704742|359.3|Lauder, New Zealand 2nd site|1996-01-27T23:55:00|1996-12-31T23:59:59
S1|TEST|-35.2839|149.1139|555.0|TESTING ONLY|2024-06-01T00:00:00|2599-12-31T23:59:59
ZU|NZ10|-43.200699|168.000397|-1193.0|SIO_OBS_ID: 082|2009-02-04T00:00:00|2010-02-05T23:59:59
IA|BMNI|-8.54|118.6926|62.95|Station Bima, Sumbawa|2007-01-01T00:00:00|2010-04-20T00:00:00
IU|CTAO|-20.0882|146.2545|357.0|Charters Towers, Australia|1991-06-17T00:00:00|2599-12-31T23:59:59
IA|PPSI|-2.766|100.01|6.0|Station Pulau Pagai, Sumatra|2008-01-01T00:00:00|2599-12-31T23:59:59
XP|0197|-38.1698|175.817001|260.0|Tokoroa|1994-01-01T00:00:00|1995-04-11T00:00:00
YS|ONIX|-10.1033|124.4498|159.0|Oni village, Timor Indonesia|2014-11-20T00:00:00|2016-12-31T23:59:59
IA|PWJI|-8.0219|111.8|205.0|Station Pagerwojo, Java|2008-01-01T00:00:00|2599-12-31T23:59:59
IA|MASI|-3.1415|102.2396|384.5|Station Muara Aman, Bengkulu, Indonesia (BMKG)|2009-01-01T00:00:00|2599-12-31T23:59:59
AU|COEN|-13.9574|143.174896|285.4|Coen, Queensland|2003-06-14T00:00:00|2599-12-31T23:59:59
YC|SBD8|5.50699|118.56041|0.0|Kg.|2018-03-14T04:15:00|2020-01-11T02:30:00
YY|OBS34|17.940399|144.480896|-3880.0|LDEO OBS34|2003-06-16T00:00:00|2003-07-30T23:59:59
YY|OBS15|17.7677|144.909393|-4152.0|LDEO OBS15|2003-06-22T00:00:00|2003-08-01T23:59:59
AU|FITZ|-18.0982|125.640297|110.0|Fitzroy Crossing|1994-08-31T00:00:00|2599-12-31T23:59:59
PS|KSI|-3.68|102.582|780.0|Kepahyang, Indonesia|2007-03-16T00:00:00|2599-12-31T23:59:59
IU|WAKE|19.2834|166.652|20.0|Wake Island|1997-05-06T00:00:00|2599-12-31T23:59:59
MI|PGNK|18.07248|145.72644|517.0|PGNK, Northern Marianas Islands|2013-06-01T00:00:00|2599-12-31T23:59:59
XC|LUMA|-45.722801|168.449402|290.0|Lumsden|1995-11-12T22:51:34|1996-12-31T23:59:59
XQ|6320|-38.6008|175.806702|545.5|6320|2002-08-09T00:00:00|2002-11-03T00:00:00
MI|PGBF|18.12379|145.7644|21.0|PGBF, Northern Marianas Islands|2013-04-25T00:00:00|2599-12-31T23:59:59
S1|AUCSH|-16.9159|145.7682|17.0|Cairns State High School|2013-09-03T00:00:00|2599-12-31T23:59:59
YC|SBG1|6.7095|116.350922|18.0|Camp|2018-03-26T05:40:00|2020-01-18T03:15:00
ZN|BBU|-9.3763|150.362106|45.0|Bolubolu, Papua New Guinea|2010-03-22T00:00:00|2011-12-31T23:59:59
XC|ABUA|-43.146702|170.462494|97.0|Abut Head|1995-11-14T00:03:16|1996-04-09T01:33:23
Z6|OS06|-9.4519|111.2433|-2913.0|Station OS06, Indonesia|2004-05-02T00:00:00|2004-10-02T00:00:00
AU|DPH|-12.4667|130.8423|45.0|Darwin Parliament House JUMP, Northern Territory|2009-01-01T00:00:00|2599-12-31T23:59:59
S1|AUMAG|-36.1016|144.7482|127.0|Moama Anglican Grammar|2013-05-24T00:00:00|2599-12-31T23:59:59
AU|WB8|-19.813942|134.380783|356.1|Warramunga Array, Australia|1999-07-01T00:00:00|2599-12-31T23:59:59
7B|SB09|-32.2892|146.857498|0.0|QUEENSLAND, AUSTRALIA|1993-12-13T07:21:56|1994-04-07T07:10:26
7B|SC07|-19.369101|138.329407|0.0|QUEENSLAND, AUSTRALIA|1994-05-22T02:19:05|1994-08-01T00:09:25
YS|TL05|-8.9853|125.6598|502.0|Same village, Timor Leste|2014-03-24T00:00:00|2018-12-31T23:59:59
IA|SLSI|-2.3924|102.5927|76.83|Station Sarolangun, Jambi Indonesia (BMKG)|2009-01-01T00:00:00|2599-12-31T23:59:59
IA|MRSI|0.4771|121.9406|99.0|Station Marisa, Sulawesi|2008-01-01T00:00:00|2599-12-31T23:59:59
2O|BTL08|-16.98692|134.46698|235.0|Beetaloo Station, NT|2021-09-03T00:00:00|2025-12-31T00:00:00
XD|LBAB|-7.557031|110.445045|1844.0|Labuhan|2001-01-25T05:00:06|2001-12-31T23:59:59
YY|OBS32|18.0809|144.909805|-3565.0|LDEO OBS32|2003-06-16T00:00:00|2004-05-05T23:59:59
XU|TOBA|-39.2346|175.543304|1480.0|?|1996-09-16T02:45:00|1997-04-07T18:59:59
IA|BBSI|-5.4885|122.56|95.0|Station Bau Bau, Buton|2007-01-01T00:00:00|2599-12-31T23:59:59
IA|MKS|-5.2178|119.4696|80.32|Station Gowa, Sulawesi, Indonesia (BMKG)|2015-01-01T00:00:00|2599-12-31T23:59:59
S1|AUKAT|-14.4624|132.2829|122.0|Katherine High School|2013-08-29T00:00:00|2599-12-31T23:59:59
XP|0341|-38.050701|176.542007|400.0|Rotoma|1994-01-01T00:00:00|1995-04-11T00:00:00
AU|PHB|-35.306999|149.1241|609.0|Parliment House Basement - Canberra|2015-12-16T00:00:00|2599-12-31T23:59:59
ZN|GOGO|-10.3383|149.671906|15.0|Gogosiba, Papua New Guinea|2010-03-28T00:00:00|2011-12-31T23:59:59
IA|MSAI|-3.3461|128.9285|82.13|Station Masohi, Seram|2007-01-01T00:00:00|2599-12-31T23:59:59
1U|TAW|-36.371693|174.851229|140.0|TÄwharanui Regional Park|2023-01-01T00:00:00|2025-12-31T23:59:59
XQ|9001|-38.551601|175.662598|741.5|9001|2002-07-23T00:00:00|2002-11-05T00:00:00
YO|UNET4|-39.285431|173.942688|360.0|UNET4|2001-10-01T00:00:00|2002-02-01T03:00:00
IA|MMSI|-2.6892|118.909|221.0|Station Mamuju, Indonesia (CN)|2009-07-19T00:00:00|2599-12-31T23:59:59
ZN|IAME|-9.5096|150.526505|17.0|Iamelele, Papua New Guinea|2010-03-23T00:00:00|2010-08-10T23:59:59
IA|BWJI|-5.8511|112.6578|57.56|Station Bawean, BMG|2007-01-01T00:00:00|2599-12-31T23:59:59
IA|SWI|-0.8628|131.2592|128.88|Station Sorong, Indonesia|2006-01-01T00:00:00|2599-12-31T23:59:59
YS|TL08|-8.4947|126.9908|398.0|Los Palos village, e Timor Leste|2014-03-17T00:00:00|2018-03-14T23:59:59
II|TAU|-42.9099|147.3204|132.0|Hobart, Tasmania, Australia|1994-01-17T00:00:00|2599-12-31T23:59:59
XC|SHEA|-43.391399|171.880096|450.0|Sheffield|1995-11-11T00:00:00|1996-12-31T23:59:59
XD|LULB|-7.539899|110.4468|2961.0|Point Luluk, summit|2001-03-10T03:03:43|2001-12-31T23:59:59
YS|ALRB|-8.2194|124.4115|69.0|Alor Besar village, nw Alor Island Indonesia|2014-11-11T00:00:00|2016-12-31T23:59:59
XB|RSFG|-41.908298|172.910202|737.0|-|2001-04-17T00:00:00|2001-12-22T00:00:00
XB|LTKA|-17.68786|177.42836|5.0|Latoka, Fiji|1993-11-19T05:43:03|1995-12-31T23:59:59
YC|SBD5|5.65637|117.273552|116.0|Felda|2018-03-11T08:55:00|2020-01-10T01:25:00
AU|WR7|-19.955193|134.476013|354.8|Warramunga Array, Australia|1999-07-01T00:00:00|2599-12-31T23:59:59
IA|SKSI|-2.52832|121.33444|602.3|Station Soroako, Sulawesi Indonesia (BMKG)|2009-01-01T00:00:00|2599-12-31T23:59:59
AU|YNG|-34.298|148.3963|460.0|Young, NSW|2004-04-16T00:00:00|2599-12-31T23:59:59
AU|WTPK|-34.2217|150.6389|199.0|Wilton Park, Sydney, NSW|2016-07-07T00:00:00|2599-12-31T23:59:59
S1|AUKAR|-20.752|116.8178|45.0|St Luke's College|2013-09-15T00:00:00|2599-12-31T23:59:59
ZU|NZ18|-41.000198|170.0|-805.0|SIO_OBS_ID: 097|2009-02-07T00:00:00|2010-01-28T23:59:59
G|CAN|-35.318715|148.996325|700.0|Canberra, Australia|1987-11-27T00:00:00|2599-12-31T23:59:59
GE|PMBI|-2.9024|104.6993|25.0|GEOFON Station Palembang, Sumatra|2005-12-06T00:00:00|2599-12-31T23:59:59
ZB|LAIS|-3.5291|102.034698|29.0|Desa Lais|2007-12-18T00:00:00|2008-10-19T23:00:00
7B|SA06|-22.892|148.308594|0.0|QUEENSLAND, AUSTRALIA|1993-05-05T00:44:50|1993-09-01T00:54:48
S1|AUBRM|-17.9565|122.2321|20.0|Broome Senior High School|2019-07-14T03:52:00|2599-12-31T23:59:59
YY|OBS09|16.600201|147.249893|-3334.0|LDEO OBS09|2003-06-21T00:00:00|2004-05-11T23:59:59
YS|SARA|-8.7873|121.1043|682.0|Sarasedu village, w Flores Island Indonesia|2014-11-05T00:00:00|2016-12-31T23:59:59
ZU|NZ30|-45.498001|173.501007|-1416.0|SIO_OBS_ID: 129|2009-02-17T00:00:00|2010-02-13T23:59:59
XC|GLEA|-44.872898|168.408096|460.0|Glenorchy|1995-11-12T00:00:00|1996-12-31T23:59:59
7B|SC05|-16.966999|135.783905|0.0|QUEENSLAND, AUSTRALIA|1994-05-23T05:59:17|1994-09-14T06:04:32
ZN|MAPM|-9.6113|150.435394|14.0|MapamoiwaMission, Papua New Guinea|2011-01-20T00:00:00|2011-12-31T23:59:59
S1|AUKUL|-32.6697|118.1522|312.0|Kulin District High School|2013-11-21T00:00:00|2599-12-31T23:59:59
ZB|L30S|0.80247|100.469704|72.0|200-50-25-05|2008-04-25T00:00:00|2008-10-25T20:29:29
YS|TL1B|-9.2422|124.3567|77.0|Bobcase, Oecussi enclave Timor Leste|2015-03-24T00:00:00|2018-12-31T23:59:59
ZN|B|-9.7494|150.350494|-1205.0|SIO OBS ID B|2010-03-02T00:00:00|2011-01-27T23:59:59
XD|MARB|-7.540679|110.447685|2928.0|Point Mar, summit|2001-03-10T03:28:21|2001-12-31T23:59:59
7B|SC03|-16.629801|129.316803|0.0|QUEENSLAND, AUSTRALIA|1994-08-05T09:40:55|1994-10-15T19:20:55
MY|KUM|5.2902|100.6492|74.0|Kulim|2005-02-17T00:00:00|2599-12-31T23:59:59
AU|CN2S|-17.0215|145.723801|56.0|Cairns 2 Soft JUMP, Queensland|2012-01-01T00:00:00|2599-12-31T23:59:59
YO|LUGT5|-39.14711|173.937393|132.0|LUGT5|2002-01-19T02:00:00|2002-02-01T00:10:00
IA|MBSI|-3.7611|102.2714|28.05|Station University, Bengkulu, Indonesia (BMKG)|2008-01-01T00:00:00|2010-04-20T00:00:00
AU|MORW|-29.0683|116.038803|300.0|Morawa, Western Australia|2003-05-26T00:00:00|2599-12-31T23:59:59
YY|OBS57|19.599899|143.400299|-4070.0|LDEO OBS57|2003-06-16T00:00:00|2003-07-31T23:59:59
YY|OBS18|17.8309|145.466705|-3244.0|LDEO OBS18|2003-06-21T00:00:00|2003-07-31T23:59:59
IA|KRJI|-2.0912|101.4619|810.88|Station Kerinci, Sumatra|2007-01-01T00:00:00|2599-12-31T23:59:59
YY|OBS37|18.134501|146.158203|-3034.0|LDEO OBS37|2003-06-18T00:00:00|2003-07-31T23:59:59
S1|AUKHS|-33.4642|151.3827|27.0|Kincumber High School|2013-05-28T00:00:00|2599-12-31T23:59:59
S1|AULHS|-41.2519|147.215|173.0|Lilydale High School|2013-10-31T00:00:00|2599-12-31T23:59:59
5A|BUTIA|-8.51044|151.092499|20.0|BUTIA Lodge Losuia|2014-12-03T06:00:00|2016-08-10T00:00:00
AU|KLGGI|-30.283214|121.761033|385.0|Kalgoorlie Hampton Hill, WA, GSWA|2022-04-21T00:00:00|2599-12-31T23:59:59
YS|LMBR|-8.7922|120.6631|205.0|Lembur village, w Flores Island Indonesia|2014-11-06T00:00:00|2016-12-31T23:59:59
ZB|S20S|-0.08793|100.65052|579.0|NO-secondary-sample-rate|2008-06-25T00:00:00|2008-10-07T20:29:29
YS|TL6B|-8.5549|125.9103|219.0|Laclo Village, Timor Leste|2018-06-08T00:00:00|2018-12-31T23:59:59
YO|TOET4|-39.134548|174.356674|100.0|TOET4|2001-10-01T00:00:00|2002-01-31T06:30:00
YS|PAGL|-8.5091|120.4916|938.0|Pagal village, w Flores Island Indonesia|2014-11-07T00:00:00|2016-12-31T23:59:59
YC|SBD3|5.639|116.46225|715.0|SK|2018-03-21T03:25:00|2020-01-16T02:15:00
7D|KA02|-16.0128|128.0|144.0|QUEENSLAND, AUSTRALIA|1997-07-21T03:17:10|1997-10-07T08:47:11
MY|IPM|4.4795|101.025497|247.0|Ipoh|2005-02-17T00:00:00|2599-12-31T23:59:59
MY|KKM|6.0443|116.214699|830.0|Kota Kinabalu|2005-02-17T00:00:00|2599-12-31T23:59:59
PS|KOR|7.3436|134.4741|10.0|Korror, Palau|2013-12-17T00:00:00|2599-12-31T23:59:59
YY|OBS38|18.1297|144.172501|-4154.0|LDEO OBS38|2003-06-16T00:00:00|2003-07-30T23:59:59
5A|LIHIR|-3.05528|152.611496|126.0|LIHIR ISLAND NI|2014-11-27T02:09:00|2016-08-16T00:00:00
ZB|MLKP|-2.9593|100.194603|22.0|Malakopa-N-comp-stucked-200-50-10-05|2007-12-10T00:00:00|2008-04-25T10:18:53
XD|KIR|-8.507367|151.084946|88.0|Losuia, Kiriwina Island|1999-07-23T00:51:21|2000-12-31T23:59:59
IA|BYJI|-8.214|114.3557|99.5|Station Banyu Wangi, Java|2008-01-01T00:00:00|2599-12-31T23:59:59
IU|SNZO|-41.3087|174.7043|120.0|South Karori, New Zealand|1992-04-07T00:00:00|2599-12-31T23:59:59
ZB|DPBR|-2.126|101.562202|815.0|Dusun Pengasih Baru-until-02-Feb-2008-timing-problems|2007-12-06T00:00:00|2008-10-19T23:00:00
XB|ACH|-42.388401|172.958801|856.0|-|2001-12-24T00:00:00|2002-12-31T23:59:59
IA|SMKI|-0.4461|117.2085|97.28|Station Samarinda, Kalimantan|2007-01-01T00:00:00|2599-12-31T23:59:59
7B|SB03|-28.600201|140.264999|0.0|QUEENSLAND, AUSTRALIA|1993-11-20T01:31:00|1994-01-26T06:01:00
AU|ARMA|-30.4198|151.628006|1112.0|Armidale, New South Wales|2004-03-19T00:00:00|2599-12-31T23:59:59
IU|DAV|7.0697|125.5791|150.0|Davao, Philippines|1994-12-18T00:00:00|2599-12-31T23:59:59
MI|ANNE|16.358|145.7162|0.0|ANNE, Northern Marianas Islands|2000-01-01T00:00:00|2599-12-31T23:59:59
AU|GLAD|-40.982498|148.009995|0.0|Gladstone JUMP, Tasmania|2009-11-20T00:00:00|2599-12-31T23:59:59
IA|MGAI|4.0079|126.67|91.0|Station MGAI|2013-01-01T00:00:00|2599-12-31T23:59:59
AU|HTT|-33.4306|138.9217|708.0|Hallett, South Australia|2009-07-01T00:00:00|2599-12-31T23:59:59
S1|AUMUL|-28.5585|153.4949|60.0|Mullumbimby High School|2013-08-29T00:00:00|2014-12-10T00:00:00
XO|TIN3|14.960391|145.64119|110.0|Tinian 3|2003-05-15T05:46:27|2004-12-31T23:59:59
YO|LUGT4|-39.147079|173.937241|113.0|LUGT4|2001-10-01T00:00:00|2002-01-09T04:00:00
ZN|DIOD|-9.4385|150.185593|14.0|Diodio, Papua New Guinea|2010-03-19T00:00:00|2011-12-31T23:59:59
AU|XMIS|-10.4807|105.651901|243.5|Christmas Island, Australia|2005-08-16T00:00:00|2599-12-31T23:59:59
ZN|VAKU|-8.8523|151.184006|17.0|Vakuta, Papua New Guinea|2010-03-19T00:00:00|2011-12-31T23:59:59
XQ|4480|-39.031799|176.573196|452.5|4480|2002-07-06T00:00:00|2002-10-31T00:00:00
YC|SBE2|6.04611|116.494621|965.0|Kiau|2018-03-23T04:10:00|2020-01-08T03:10:00
XP|0394|-38.52|176.156006|300.0|CRS|1994-01-01T00:00:00|1995-04-11T00:00:00
7D|KA09|-17.2813|127.4645|180.0|QUEENSLAND, AUSTRALIA|1997-07-27T04:26:10|1997-10-13T02:07:20
XC|GLAA|-43.421902|169.847595|25.0|Gillespies Beach|1995-11-14T04:25:04|1996-12-31T23:59:59
XD|EBM|-10.604326|150.653549|102.0|Ebuma Island|1999-08-14T02:59:57|2000-12-31T23:59:59
YC|SBA7|4.44587|117.714417|35.0|Kg.|2018-03-16T04:00:00|2020-01-13T02:35:00
YY|OBS20|17.884899|145.951004|-2702.0|LDEO OBS20|2003-06-22T00:00:00|2003-07-31T23:59:59
XT|LTKA|-17.687468|177.428238|78.0|Latoka|2001-08-02T03:17:22|2002-12-31T23:59:59
AU|KLGHH|-30.750014|121.752683|386.0|Kalgoorlie Hampton Hill, WA ,GSWA network|2022-04-20T00:00:00|2599-12-31T23:59:59
AU|OOD|-27.794399|135.688004|162.2|Oodnadatta, South Australia|2013-05-24T00:00:00|2599-12-31T23:59:59
YW|SING4|-32.588035|151.126957|87.0|Wylies Flat, NSW|2025-04-27T00:00:00|2025-12-31T23:59:59
AU|NRFK|-29.040001|167.962997|196.0|Norfolk Island, Australia|2006-09-26T00:00:00|2008-04-23T00:00:00
XM|ARPA|-42.974899|171.578705|707.0|Arthurs Pass|1994-01-25T00:00:00|1994-04-23T00:00:00
YY|OBS17|17.803301|145.248901|-3595.0|LDEO OBS17|2003-06-22T00:00:00|2003-07-31T23:59:59
ZN|MENA|-9.7569|149.935501|15.0|Menapi, Papua New Guinea|2010-03-14T00:00:00|2011-12-31T23:59:59
7E|KB06|-16.101999|126.600998|524.0|QUEENSLAND, AUSTRALIA|1998-05-24T02:00:54|1998-07-21T01:35:04
AU|WB6|-19.854958|134.367172|364.8|Warramunga Array, Australia|1999-07-01T00:00:00|2599-12-31T23:59:59
ZC|ROTA|14.1479|145.186401|490.0|Rota, Sinapalo, Mariana Islands|2006-08-02T00:00:00|2008-01-01T00:00:00
AU|WB1|-19.959444|134.34642|393.5|Warramunga Array, Australia|1999-07-01T00:00:00|2599-12-31T23:59:59
ZB|BTPP|-1.3251|100.940102|862.0|Batang Pasampan-200-50-10-05|2007-12-03T00:00:00|2008-10-19T23:00:00
ZU|NZ22|-44.500599|173.998703|-776.0|SIO_OBS_ID: 135|2009-02-12T00:00:00|2010-02-14T23:59:59
GE|TNTI|0.7718|127.3667|43.0|GEOFON Station GEOFON Station Ternate, Indonesia|2007-01-05T00:00:00|2599-12-31T23:59:59
S1|AUHAR|-33.0927|115.8912|39.0|St Anne's School|2014-09-18T00:00:00|2599-12-31T23:59:59
ZU|NZ13|-42.499699|169.0|-1165.0|SIO_OBS_ID: 134|2009-02-05T00:00:00|2010-02-01T23:59:59
YC|SBB4|4.81717|116.504967|465.0|Kg.|2018-03-20T02:30:00|2020-01-14T06:05:00
YY|OBS29|17.922899|144.967194|-3740.0|LDEO OBS29|2003-06-22T00:00:00|2003-08-01T23:59:59
IA|DBNI|-8.50188|118.31213|185.0|Station Kabupaten Dompu, Sumbawa, BMG, Indonesia|2007-01-01T00:00:00|2599-12-31T23:59:59
AU|BRS|-27.39132|152.77398|580.0|BRS Brisbane Mt Nebo, QLD|2023-04-29T00:00:00|2599-12-31T23:59:59
XQ|6575|-38.516499|175.544907|554.0|6575|2002-07-18T00:00:00|2002-11-04T00:00:00
YO|PUET4|-39.511009|173.912613|41.0|PUET4|2001-10-01T00:00:00|2002-02-01T03:33:00
IA|PDSI|-0.9118|100.4617|275.6|Station Padang, Sumatra|2007-01-01T00:00:00|2599-12-31T23:59:59
1U|GUYJ|-37.3434|175.2705|58.0|Guy J's farm in Waerenga|2023-01-01T00:00:00|2025-12-31T23:59:59
S1|AUSIS|-35.2839|149.1147|585.0|Australian National University|2011-09-13T00:00:00|2020-04-16T04:55:00
ZU|NZ08|-40.999802|168.501099|-995.0|SIO_OBS_ID: 098|2009-02-04T00:00:00|2010-01-30T23:59:59
7D|KA08|-18.868|126.016121|180.0|QUEENSLAND, AUSTRALIA|1997-07-26T03:48:43|1997-10-12T06:33:13
7D|KA05|-16.8195|124.9123|180.0|QUEENSLAND, AUSTRALIA|1997-07-23T04:20:51|1997-10-09T09:50:51
Z6|OH12|-9.0556|111.3758|-2474.0|Station OH12, Indonesia|2004-05-03T00:00:00|2004-10-03T00:00:00
AU|BTL04|-15.84238|133.93432|313.0|Nutwood Downs, NT|2021-08-27T00:00:00|2021-09-07T00:37:11
AU|GNGN|-31.35787|115.71467|20.0|Gingin GSWA|2022-03-25T00:00:00|2599-12-31T23:59:59
XP|0478|-38.4095|176.559006|500.0|Kaingaroa|1994-01-01T00:00:00|1995-04-11T00:00:00
7B|SB10|-28.6597|149.012497|0.0|QUEENSLAND, AUSTRALIA|1993-12-15T01:10:55|1994-03-11T08:09:45
XQ|4690|-38.888802|176.405807|755.0|Dead Sheep|2002-08-08T00:00:00|2002-11-01T00:00:00
AU|KORDA|-30.87687|117.50301|306.0|KORDA- Koorda, Western Australia|2020-05-28T00:00:00|2023-03-23T00:00:00
YW|SING3|-32.608888|151.196218|47.0|Whittingham RFS shed|2025-04-27T00:00:00|2025-12-31T23:59:59
2O|BTL07|-17.60978|133.95621|231.0|Tandyidgee, NT|2021-09-05T00:00:00|2025-12-31T00:00:00
AU|PSA00|-21.5725|119.845802|305.0|Pilbara Seismic Array Element A0|2011-01-01T00:00:00|2599-12-31T23:59:59
ZB|L40S|0.97093|100.252434|73.0|200-100-50-25-TAB4|2008-04-25T00:00:00|2008-07-01T09:48:56
IA|TPI|-2.75633|107.65345|25.0|Station Tanjung Pandang, Belitung|2006-12-22T00:00:00|2599-12-31T23:59:59
XC|QRZA|-40.825298|172.529907|294.0|Quartz Hills|1995-11-12T02:08:51|1996-12-31T23:59:59
ZU|NZ09|-41.6507|167.899796|-1335.0|SIO_OBS_ID: 112|2009-02-04T00:00:00|2010-02-01T23:59:59
YS|TL01|-9.2068|124.364215|21.0|Pante Macassar, Oecussi enclave Timor Leste|2014-03-20T00:00:00|2015-03-24T23:59:59
IA|TGJI|-6.8679|109.121|43.84|Station Tegal, Java|2007-01-01T00:00:00|2010-04-20T00:00:00
1U|OKGB|-36.155047|175.39268|78.0|Åkiwi Great Barrier|2023-01-01T00:00:00|2025-12-31T23:59:59
AU|KELC|-35.979099|136.907806|60.0|Kangaroo Island|2018-06-11T00:00:00|2599-12-31T23:59:59
7B|SA01|-13.9586|143.180099|0.0|QUEENSLAND, AUSTRALIA|1993-06-25T06:00:28|1993-10-06T01:40:37
XB|LBSA|-16.302265|179.450333|10.0|Labasa, Fiji|1993-11-21T20:53:51|1995-12-31T23:59:59
YC|SBG2|6.83352|116.762619|12.0|Sk.|2018-03-27T06:35:00|2020-01-08T03:45:00
AU|WB7|-19.840809|134.379456|353.2|Warramunga Array, Australia|1999-07-01T00:00:00|2599-12-31T23:59:59
AU|MEEK|-26.638|118.614998|530.0|Meekatharra, Western Australia|2003-06-25T00:00:00|2599-12-31T23:59:59
2O|BTL06|-17.04646|133.80311|0.233|Beetaloo Station, NT|2021-08-31T00:00:00|2025-12-31T00:00:00
AU|MGCD|-33.2096|151.1092|285.0|ACT|1996-12-10T00:00:00|2599-12-31T23:59:59
XC|CLAA|-45.790199|170.043701|432.0|Clarks Junction|1995-11-09T23:34:21|1996-12-31T23:59:59
YY|OBS48|18.1085|145.923004|-2247.0|LDEO OBS48|2003-06-18T00:00:00|2004-05-09T23:59:59
YC|SBA6|4.51025|117.301758|88.0|Golden|2018-03-16T05:15:00|2019-11-30T22:55:00
ZB|S40S|0.34352|100.818329|88.0|200-50-25-05|2008-07-04T07:18:22|2008-10-22T05:35:00
7B|SA04|-22.941799|140.143997|0.0|QUEENSLAND, AUSTRALIA|1993-05-14T06:26:51|1993-10-03T22:00:58
YY|OBS14|17.745001|144.780304|-3671.0|LDEO OBS14|2003-06-23T00:00:00|2004-05-03T23:59:59
AU|MANU|-2.0432|147.366196|141.5|Manus Island, Papua New Guinea|2009-05-26T00:00:00|2599-12-31T23:59:59
II|MSVF|-17.7448|178.0528|801.1|Monasavu, Fiji|1994-05-24T00:00:00|2599-12-31T23:59:59
XC|KAHA|-42.417599|173.541504|72.0|Kahutara|1995-11-13T19:38:31|1996-12-31T23:59:59
AU|GC2F|-27.912201|153.395798|12.0|Gold Coast 2 Fill JUMP, Queensland|2009-01-01T00:00:00|2599-12-31T23:59:59
IA|KMSI|0.5745|123.98|218.0|Station Kotamubagu, Sulawesi|2008-01-01T00:00:00|2599-12-31T23:59:59
XO|GUA3|13.266417|144.717209|140.0|Guam 3|2003-05-08T02:45:58|2004-12-31T23:59:59
Z1|NADI|-17.723301|177.494705|27.0|Nadi, Viti Levu, Fiji|2009-10-31T00:00:00|2010-12-31T23:59:59
XU|CLIA|-46.291599|169.313507|352.0|Clinton|1996-04-14T00:00:00|1997-12-31T23:59:59
AU|TOO|-37.5714|145.490601|604.0|Toolangi, VIC|2003-06-25T00:00:00|2599-12-31T23:59:59
IA|GMJI|-8.2732|113.4441|80.13|Station Gumukmas, Java|2008-01-01T00:00:00|2599-12-31T23:59:59
IA|WOJI|-7.8372|110.9236|183.62|Station Wonogiri, Java, Indonesia (BMKG)|2009-01-01T00:00:00|2599-12-31T23:59:59
ZB|BSAT|-3.0766|100.284599|17.0|Bulasat-200-50-10-05|2007-12-09T00:00:00|2008-10-16T23:00:00
MI|ANA2|16.3412|145.7115|317.0|ANA2, Northern Marianas Islands|2000-01-01T00:00:00|2599-12-31T23:59:59
IA|DBJI|-6.5538|106.7497|210.84|Station Dramaga, Java|2007-01-01T00:00:00|2599-12-31T23:59:59
XD|SEHF|-9.967582|151.180817|257.0|Sehulea (Kesipwa Village), Normanby Island|1999-09-03T10:53:53|2000-12-31T23:59:59
YW|RDK12|-32.01886|150.51618|385.0|RDK 12 Muswellbrook station 2|2021-05-23T00:00:00|2025-12-31T23:59:59
IA|APSI|-0.9108|121.6487|143.5|Station Ampana, Sulawesi|2008-01-01T00:00:00|2599-12-31T23:59:59
GE|YOGI|-7.8166|110.2949|160.0|GEOFON Station Yogyakarta, Java|2005-12-06T00:00:00|2007-01-28T00:00:00
AU|BTL05|-16.4788|133.88445|285.0|Amungee Mungee, NT|2021-08-25T00:00:00|2021-09-07T00:37:11
YW|MSWL3|-32.3933|150.92683|276.0|YW-MSWL3|2024-08-26T00:00:00|2025-12-31T23:59:59
XU|LUMA|-45.722801|168.449402|290.0|Lumsden|1996-01-29T00:00:00|1997-01-07T23:59:59
IA|CBJI|-6.6981|106.9349|1006.39|Station Citeko, Indonesia|2006-01-01T00:00:00|2599-12-31T23:59:59
YS|ENDE|-8.8318|121.6523|159.0|Ende, Flores Island Indonesia|2014-11-03T00:00:00|2016-12-31T23:59:59
IA|PPI|-0.4568|100.397|0.0|Station Padangpanjang, Indonesia|2005-01-01T00:00:00|2599-12-31T23:59:59
1U|PAE|-37.246692|175.650908|59.0|Paeroa|2023-01-01T00:00:00|2025-12-31T23:59:59
IA|WAMI|-4.09593|138.95004|1673.0|Station Wamena, Irian Jaya|2008-09-05T00:00:00|2599-12-31T23:59:59
GE|BKNI|0.3262|101.0396|65.0|GEOFON Station GEOFON Station Bangkinang, Sumatra|2008-04-29T00:00:00|2599-12-31T23:59:59
XO|AGRN|18.736506|145.652893|71.0|Agrigan|2003-05-10T03:51:54|2004-12-31T23:59:59
XU|RIVW|-33.827801|151.158401|15.0|Riverview|1996-04-01T05:04:06|1996-11-16T01:54:59
AU|WR0|-19.9597|134.540405|375.0|Warramunga Array, NT|2004-01-19T00:00:00|2599-12-31T23:59:59
IA|LBFI|-8.4835|119.8921|123.0|Station Labuhan Bajo, Indonesia (CN)|2009-07-19T00:00:00|2599-12-31T23:59:59
XC|TOPA|-41.762699|172.905304|754.0|Tophouse|1995-11-12T23:31:24|1996-12-31T23:59:59
ZB|C60S|0.21332|100.123199|383.0|NO-secondary-sample-rate|2008-06-27T00:00:00|2009-03-11T20:29:29
IA|BASI|-10.2189|120.5777|80.84|Station Baing, Sumba, Indonesia (BMKG)|2009-01-01T00:00:00|2599-12-31T23:59:59
7B|SC09|-22.3969|136.295303|0.0|QUEENSLAND, AUSTRALIA|1994-05-20T07:28:05|1994-08-02T18:45:22
XO|ALMN|17.612436|145.821381|71.0|Alamagan|2003-05-08T01:04:37|2004-12-31T23:59:59
1U|TRP|-36.495247|174.246076|178.0|Te Rau PÅ«riri Regional Park|2023-01-01T00:00:00|2025-12-31T23:59:59
7E|KB08|-17.346201|126.098503|277.0|QUEENSLAND, AUSTRALIA|1998-05-25T03:29:56|1998-07-24T01:54:26
AU|WR9|-19.957653|134.514923|360.2|Warramunga Array, Australia|1999-07-01T00:00:00|2599-12-31T23:59:59
AU|MGBR|-37.726299|140.5728|186.0|Mount Gambier SA|2018-06-12T00:00:00|2599-12-31T23:59:59
ZU|NZ15|-42.1506|170.399597|-561.0|SIO_OBS_ID: 119|2009-02-06T00:00:00|2009-06-18T23:59:59
IA|UBSI|-3.7611|102.2714|28.05|Station Bengkulu, Sumatra, Indonesia (BMKG)|2006-01-01T00:00:00|2599-12-31T23:59:59
AU|WB2|-19.942753|134.35112|388.0|Warramunga Array, Australia|1999-07-01T00:00:00|2599-12-31T23:59:59
IA|AAII|-3.6871|128.194|160.0|Station Ambon, Indonesia (CN)|2006-01-01T00:00:00|2599-12-31T23:59:59
IA|PCI|-0.9054|119.8366|150.0|Station Palu, Indonesia|2005-01-01T00:00:00|2599-12-31T23:59:59
XU|WLZA|-37.869999|175.5961|190.0|Whitehall|1996-04-13T23:05:04|1997-12-31T23:59:59
IA|KDI|-3.95743|122.61926|55.0|Station Kendari, Sulawesi|2006-12-26T00:00:00|2599-12-31T23:59:59
AU|WB10|-19.767141|134.392838|362.1|Warramunga, NT|2013-08-26T00:00:00|2599-12-31T23:59:59
IA|TLE2|-5.69943|132.73952|34.0|Station Tual, Kai, JISNET, Indonesia|2010-01-01T00:00:00|2599-12-31T23:59:59
GE|MMRI|-8.6357|122.2376|137.0|GEOFON Station GEOFON Station Maumere, Flores|2006-11-09T00:00:00|2599-12-31T23:59:59
XT|DAWA|-17.619049|178.498611|91.0|Dawasamu|2001-07-24T04:12:59|2002-12-31T23:59:59
AU|GVL|-37.621399|144.899002|185.0|Greenvale Resevoir, JUMP Victoria|2013-03-05T00:00:00|2599-12-31T23:59:59
YS|TL02|-8.9884|125.208|271.0|Maliana village, Timor Leste|2014-03-19T00:00:00|2018-12-31T23:59:59
IA|SDSI|-0.9325|101.428|213.32|Station Sungai Dareh, Sumatra|2008-01-01T00:00:00|2599-12-31T23:59:59
MI|FLX|15.23388|145.79172|71.0|HUB|2011-03-20T00:00:00|2599-12-31T23:59:59
YY|OBS11|17.6304|143.857605|-3889.0|LDEO OBS11|2003-06-23T00:00:00|2003-08-10T23:59:59
YC|SBC6|5.29518|117.271652|81.0|Tamoi|2018-03-11T06:10:00|2020-01-10T00:00:00
S1|AUUHS|-35.3589|150.4696|44.0|Ulladulla High School|2013-09-15T00:00:00|2599-12-31T23:59:59
S1|AUCAR|-24.8851|113.6586|17.0|St Mary Star of the Sea|2013-09-24T00:00:00|2599-12-31T23:59:59
1U|RAG|-37.905357|174.784366|62.0|Raglan|2023-01-01T00:00:00|2025-12-31T23:59:59
AU|DRS|-12.4313|130.899307|44.0|Darwin Rock Store JUMP, Northern Territory|2009-01-01T00:00:00|2599-12-31T23:59:59
PS|BAG|16.410801|120.579697|1507.0|Baguio, Philippines|1998-03-17T00:00:00|2599-12-31T23:59:59
YY|OBS08|16.520599|147.119095|-3541.0|LDEO OBS08|2003-06-21T00:00:00|2004-05-12T23:59:59
YS|TL06|-8.4718|126.4576|431.0|Baucau village, Timor Leste|2014-03-17T00:00:00|2018-06-07T23:59:59
AU|YAPP|-31.866301|138.311905|267.0|Yappala Station, SA|2018-06-23T00:00:00|2599-12-31T23:59:59
Z1|SUVA|-18.114599|178.453705|43.0|Suva, Fiji|2010-05-02T00:00:00|2010-12-31T23:59:59
ZN|I|-9.4667|149.929504|-959.0|SIO OBS ID I|2010-03-03T00:00:00|2011-01-27T23:59:59
XD|MISA|-10.665967|152.801605|359.0|Misima Mines A, Misima Island|1999-07-25T04:32:52|2000-12-31T23:59:59
YS|BULE|-9.41579|119.30487|67.0|Laura village, nw Sumba Island Indonesia|2014-10-23T00:00:00|2016-12-31T23:59:59
XC|BERA|-44.5294|169.883804|505.0|Berwen|1995-11-16T22:11:41|1996-12-31T23:59:59
XO|PAGW|18.122175|145.761658|61.0|Pagan west|2003-05-09T06:34:15|2004-12-31T23:59:59
7E|KB03|-16.039301|129.263306|121.0|QUEENSLAND, AUSTRALIA|1998-05-22T02:27:38|1998-07-19T04:03:28
IA|TTSI|-3.0451|119.819|950.4|Station Tana Toraja, Sulawesi|2008-01-01T00:00:00|2599-12-31T23:59:59
AU|WC4|-19.961927|134.339737|387.5|Warramunga Array, Australia|1999-07-01T00:00:00|2599-12-31T23:59:59
YY|OBS07|16.4604|147.251907|-3224.0|LDEO OBS07|2003-06-19T00:00:00|2003-07-30T23:59:59
3B|WYKM1|-31.26097|117.59853|345.0|3B-WYKM1|2024-08-22T00:00:00|2025-01-16T00:00:00
ZN|MOKI|-9.4365|150.668503|10.0|MokaiVill, Papua New Guinea|2010-03-21T00:00:00|2011-12-31T23:59:59
IA|PCJI|-8.1947|111.1771|702.27|Station Pacitan, Java|2008-01-01T00:00:00|2599-12-31T23:59:59
MI|PGWW|18.137759|145.77791|232.0|PGWW, Northern Marianas Islands|2013-06-01T00:00:00|2599-12-31T23:59:59
Z6|OH13|-8.7687|111.0262|-1133.0|Station OH13, Indonesia|2004-05-03T00:00:00|2004-10-03T00:00:00
AU|CORO|-41.452202|147.145004|0.0|Coronation Park JUMP, Tasmania|2009-11-20T00:00:00|2599-12-31T23:59:59
1U|RAKI|-36.716848|174.947292|118.0|RÄkino Island|2023-01-01T00:00:00|2025-12-31T23:59:59
IA|PLKI|-2.2262|113.9453|69.73|Station Palangkaraya, Kalimantan|2007-01-01T00:00:00|2010-04-20T00:00:00
TM|TMDB|13.6684|100.607|-47.0|Bangna, Bangkok|2008-01-01T00:00:00|2599-12-31T23:59:59
MI|ANSW|16.3417|145.6734|390.0|ANSW, Northern Marianas Islands|2000-01-01T00:00:00|2599-12-31T23:59:59
MI|PGNW|18.16172|145.7746|94.0|PGNW, Northern Marianas Islands|2013-04-25T00:00:00|2599-12-31T23:59:59
IA|SIJI|-0.86912|131.26605|201.0|Station Sorong, Indonesia (CTBTO AS042)|2010-01-01T00:00:00|2599-12-31T23:59:59
XO|GUA1|13.539673|144.913986|289.0|Guam 1|2003-05-06T02:51:52|2004-12-31T23:59:59
XU|BLBA|-41.713902|173.877396|253.0|Blackbirch|1996-04-04T00:00:00|1997-12-31T23:59:59
7B|SA08|-25.708401|150.892593|0.0|QUEENSLAND, AUSTRALIA|1993-05-03T03:00:58|1993-10-10T01:30:51
AU|CARL|-31.9835|115.926697|2.0|Carlisle JUMP, WA|2009-08-02T00:00:00|2599-12-31T23:59:59
IA|BKSI|-5.3219|120.1224|606.0|Station Bulukumba, Sulawesi|2008-01-01T00:00:00|2599-12-31T23:59:59
MI|SARN|16.7002|145.7795|451.0|SARN, Northern Marianas Islands|2000-01-01T00:00:00|2599-12-31T23:59:59
7B|SD03|-27.0515|125.185699|0.0|QUEENSLAND, AUSTRALIA|1995-03-23T06:11:47|1995-08-07T03:08:30
IA|CLJI|-7.7187|109.015|45.73|Station Cilacap, Java|2007-01-01T00:00:00|2010-04-20T00:00:00
S1|AUALC|-23.6899|133.8835|573.0|St Philip's College|2015-08-19T00:00:00|2599-12-31T23:59:59
S1|AUKAL|-30.7637|121.4789|373.0|John Paul College|2013-09-26T00:00:00|2599-12-31T23:59:59
YO|WITT4|-39.389469|173.782776|6.0|WITT4|2001-10-01T00:00:00|2002-02-01T06:00:00
IA|MKBI|-2.4474|101.2396|48.21|Station Muko-Muko, Bengkulu, Indonesia (BMKG)|2009-01-01T00:00:00|2599-12-31T23:59:59
IA|ALKI|-8.1445|124.5903|720.0|Station Alor, Indonesia (BMKG)|2010-10-01T00:00:00|2599-12-31T23:59:59
AU|MULG|-30.281799|134.058502|254.7|Mulgathing, South Australia|2013-05-28T00:00:00|2599-12-31T23:59:59
YY|OBS28|17.9158|144.841202|-4624.0|LDEO OBS28|2003-06-23T00:00:00|2004-05-05T23:59:59
ZU|NZ29|-45.247398|172.253494|-1383.0|SIO_OBS_ID: 130|2009-02-17T00:00:00|2010-02-13T23:59:59
YO|WINT4|-39.576759|174.128265|42.0|WINT4|2001-10-01T00:00:00|2002-02-01T03:00:00
YW|SING2|-32.73035|151.111539|118.0|Boke, NSW|2025-04-27T00:00:00|2025-12-31T23:59:59
ZN|SINA|-8.6778|151.090103|15.0|Sinaketa, Papua New Guinea|2010-03-19T00:00:00|2011-12-31T23:59:59
IA|PMSI|-3.5008|118.9149|306.8|Station Majene, Sulawesi, Indonesia (BMKG)|2009-01-01T00:00:00|2599-12-31T23:59:59
AU|BTL09|-16.25895|134.86316|178.0|Tanumbirini, NT|2021-08-28T00:00:00|2021-09-07T00:37:11
RM|DLV|11.952|108.481499|1200.0|Dalat Central Vietnam|2008-04-24T00:00:00|2599-12-31T23:59:59
XB|KDVU|-19.099176|178.162888|5.0|Kadavu, Fiji|1994-08-14T21:34:25|1995-12-31T23:59:59
5A|LASU|-4.303918|153.108185|20.0|LASU NI|2014-11-24T20:42:00|2016-08-18T00:00:00
XT|SUVA|-18.114656|178.452805|98.0|Suva Pier|2001-08-14T04:32:36|2002-12-31T23:59:59
AU|SDAN|-34.5073|139.337997|585.0|Sedan SA|2018-06-10T00:00:00|2599-12-31T23:59:59
XB|RSF00|-41.876499|172.860504|1568.0|-|2001-04-17T00:00:00|2001-12-21T00:00:00
XT|KDVU|-19.099148|178.162918|89.0|Kandavu Island|2001-08-09T06:35:28|2002-12-31T23:59:59
XT|TAUF|-17.971741|177.280457|118.0|Taufnhoa|2001-07-28T02:35:41|2002-12-31T23:59:59
YC|MALB|4.7374|116.979973|230.0|Maliau|2018-03-18T08:45:00|2020-01-13T05:05:00
G|SANVU|-15.447148|167.203231|56.0|Espiritu Santo, Vanuatu|2011-11-01T00:00:00|2599-12-31T23:59:59
XP|0119|-37.888302|176.688004|100.0|Matata|1994-01-01T00:00:00|1995-04-11T00:00:00
Z1|LBSA|-16.540899|179.300201|140.0|Labasa, Vanua Levu, Fiji|2009-10-27T00:00:00|2010-12-31T23:59:59
7B|SB07|-34.6577|144.507706|0.0|QUEENSLAND, AUSTRALIA|1994-02-03T23:19:35|1994-04-11T04:59:35
5A|BUIN|-6.74982|155.692429|51.0|BUIN Bougainville|2014-11-20T00:16:23|2016-08-20T00:00:00
IA|TPRI|0.9184|104.5263|41.46|Station Tanjung Pinang, Sumatra|2007-01-01T00:00:00|2599-12-31T23:59:59
5A|KIMBE|-5.53671|150.126236|21.0|KIMBE NB|2014-11-29T04:57:20|2016-08-12T00:00:00
IA|NBBI|-8.4597|114.942|300.74|Station Negara, Indonesia|2006-01-01T00:00:00|2010-04-20T00:00:00
YC|SBA2|4.43506|115.745598|1019.0|Long|2018-03-24T05:55:00|2020-01-16T06:00:00
ZB|S08S|-0.30515|100.263802|1178.0|200-50-20-04-Check-sec-SPR|2008-06-26T00:00:00|2008-10-26T04:58:00
YS|PPLA|-10.6113|123.3805|28.0|Papela village, ne Rote Island Indonesia|2014-10-04T00:00:00|2016-12-31T23:59:59
XC|MAKA|-44.250401|169.2229|335.0|Makarora|1995-11-14T02:07:57|1996-12-31T23:59:59
YS|RENG|-8.6048|120.0651|491.0|Rengkas village, west Flores Island Indonesia|2014-11-17T00:00:00|2016-12-31T23:59:59
XC|MTJA|-43.9856|170.464905|1042.0|Mt John|1995-11-14T01:49:26|1996-12-31T23:59:59
1U|ARD|-37.034644|174.982944|64.0|Ardmore Field Station|2023-01-01T00:00:00|2025-12-31T23:59:59
GE|BBJI|-7.462603|107.65|615.0|GEOFON Station GEOFON Station Bungbulang, Garut, Java|2016-09-05T00:00:00|2599-12-31T23:59:59
XO|SARI|16.709562|145.769669|85.0|Sariguan|2003-05-06T08:18:07|2004-12-31T23:59:59
XD|WORB|-7.541781|110.44799|2890.0|Point Woro, summit|2001-03-17T01:58:26|2001-12-31T23:59:59
IA|JAY|-2.5145|140.7043|461.46|Station Jayapura, Indonesia|2006-01-01T00:00:00|2599-12-31T23:59:59
XM|RKAA|-43.303101|171.3246|480.0|Rakaia|1994-01-25T00:00:00|1994-04-23T00:00:00
TM|CHBT|12.7441|102.3526|198.0|Khereethan Dam, Chanthaburi|2008-01-01T00:00:00|2599-12-31T23:59:59
AU|BBOO|-32.8102|136.058807|321.0|Buckleboo, South Australia|2004-08-09T00:00:00|2599-12-31T23:59:59
XQ|6385|-38.580299|175.747101|469.5|6385|2002-07-24T00:00:00|2002-11-03T00:00:00
IA|SPSI|-3.9646|119.7691|142.0|Station Sidrap, Sulawesi|2008-01-01T00:00:00|2599-12-31T23:59:59
II|KWAJ|8.8019|167.613|0.0|Kwajalein Atoll, Pacific Ocean|1999-06-22T00:00:00|2017-08-08T21:08:59
YS|TL03|-8.6043|125.5572|692.0|Dare village near Dili, Timor Leste|2014-03-15T00:00:00|2018-12-31T23:59:59
YW|MSWL2|-32.37958|150.72452|251.0|YW-MSWL2|2024-08-26T00:00:00|2025-12-31T23:59:59
XQ|4760|-38.863201|176.335098|715.0|4760|2002-07-21T00:00:00|2002-11-01T00:00:00
AU|BCON|-30.33585|117.7649|386.0|Beacon, Western Australia|2020-05-28T00:00:00|2599-12-31T23:59:59
YY|OBS21|17.9114|146.185104|-2602.0|LDEO OBS21|2003-06-21T00:00:00|2003-07-31T23:59:59
XT|DEUB|-18.253408|178.055252|118.0|Deuba|2001-07-23T03:27:19|2002-12-31T23:59:59
S1|AUMAZ|-32.0069|116.0384|263.0|Mazenod Senior College|2013-12-04T00:00:00|2599-12-31T23:59:59
XC|EWZA|-43.509998|170.8526|625.0|Erewhon|1995-11-11T04:43:33|1996-12-31T23:59:59
ZB|S04S|-0.34423|100.026772|118.0|200-50-25-05|2008-07-10T00:00:00|2008-10-21T20:29:29
GE|SAUI|-7.9826|131.2988|110.0|GEOFON Station Saumlaki, Tanimbar, Indonesia|2009-08-25T00:00:00|2599-12-31T23:59:59
ZB|SLBU|-2.7672|100.011002|18.0|Silabu-200-50-10-05|2007-12-09T00:00:00|2008-10-19T23:00:00
YS|TL04|-8.2213|125.6065|12.0|Beloi village, Atauro Island Timor Leste|2014-03-25T00:00:00|2018-12-31T23:59:59
TM|UBPT|15.2773|105.4695|120.0|Pak mun Dam, Ubon Ratchathani|2008-01-01T00:00:00|2599-12-31T23:59:59
AU|PSAB2|-21.55485|119.861053|302.0|Pilbara Seismic Array Element B2|2011-01-01T00:00:00|2599-12-31T23:59:59
YY|OBS31|18.060499|144.783493|-4386.0|LDEO OBS31|2003-06-23T00:00:00|2003-07-31T23:59:59
ZN|KIR|-8.5073|151.0849|18.0|Kiriwina, Papua New Guinea|2010-03-18T00:00:00|2011-12-31T23:59:59
XT|RAKI|-17.376263|178.139893|76.0|RakiRaki|2001-07-31T00:47:04|2002-12-31T23:59:59
GE|LUWI|-1.0418|122.7717|6.0|GEOFON Station GEOFON Station Lhokseumave, Sulawesi|2008-03-10T00:00:00|2599-12-31T23:59:59
ZU|NZ05|-40.6493|167.251007|-1188.0|SIO_OBS_ID: 125|2009-02-03T00:00:00|2010-01-29T23:59:59
YC|SBC7|5.32075|117.691338|48.0|Syarimo|2018-03-13T05:05:00|2020-01-10T07:30:00
ZU|NZ24|-45.498402|176.002594|-1507.0|SIO_OBS_ID: 131|2009-02-14T00:00:00|2010-02-12T23:59:59
YS|BAOP|-8.4882|123.2696|67.0|Baopukang village, Lembata Island Indonesia|2014-10-31T00:00:00|2016-12-31T23:59:59
ZN|BASI|-9.4657|150.832504|13.0|BasimaSchool, Papua New Guinea|2010-03-13T00:00:00|2011-12-31T23:59:59
AU|SYDH|-33.7619|150.7417|55.0|Sydney Hard Rock Urban Monitoring, New South Wales|2010-09-10T00:00:00|2023-12-13T23:59:59
ZB|SMYA|-2.6125|100.105103|8.0|Saumangaya-200-50-10-05|2007-12-16T00:00:00|2008-10-15T00:00:00
XB|CCH|-42.001999|172.889801|843.0|-|2001-04-17T00:00:00|2002-12-31T23:59:59
IA|AAI|-3.6871|128.1943|157.2|Station Ambon, Indonesia|2006-01-01T00:00:00|2599-12-31T23:59:59
AU|WB0|-19.767099|134.3927|392.0|Warramunga Array, NT|2004-01-19T00:00:00|2599-12-31T23:59:59
7B|SD09|-30.4324|139.421494|0.0|QUEENSLAND, AUSTRALIA|1995-03-16T05:24:34|1995-05-22T06:44:34
XO|ANAH|16.364368|145.633713|91.0|Anatahan|2003-05-06T05:56:56|2004-12-31T23:59:59
AU|CN1H|-16.910999|145.710602|149.0|Cairns 1 Hard JUMP, Queensland|2012-01-01T00:00:00|2599-12-31T23:59:59
AU|SYDS|-33.9297|151.2243|27.0|Sydney Soft JUMP, NSW|2010-04-30T00:00:00|2599-12-31T23:59:59
TM|SKLT|7.175815|100.615686|11.0|Mueang, Songkhla|2008-01-01T00:00:00|2599-12-31T23:59:59
YS|TL07|-8.8558|126.3628|56.0|Viqueque village, Timor Leste|2014-03-18T00:00:00|2017-12-31T23:59:59
XD|KUL2|-9.088606|152.715454|123.0|Kulumwadao #2, Woodlark Island|1999-07-26T01:07:10|2000-12-31T23:59:59
XQ|6815|-38.4464|175.311203|229.0|6815|2002-07-23T00:00:00|2002-11-05T00:00:00
YC|SBB6|4.83194|117.355751|234.0|Luasong|2018-03-16T04:05:00|2020-01-13T04:55:00
YY|OBS36|18.0529|145.431702|-3176.0|LDEO OBS36|2003-06-19T00:00:00|2004-05-08T23:59:59
IA|WBSI|-9.6411|119.3911|456.67|Station Waikabubak, Sumba, Indonesia (BMKG)|2009-01-01T00:00:00|2599-12-31T23:59:59
IA|SBJI|-6.1117|106.1318|64.48|Station Serang, Indonesia|2006-01-01T00:00:00|2599-12-31T23:59:59
TM|PHRA|18.4989|100.229|186.0|Song, Phrae|2008-01-01T00:00:00|2599-12-31T23:59:59
IA|BATI|-10.2065|123.6633|356.11|Station Kupang, Timor|2007-01-01T00:00:00|2599-12-31T23:59:59
Z1|DEBA|-18.253401|178.055298|63.0|Deuba, Viti Levu, Fiji|2009-10-29T00:00:00|2010-04-22T23:59:59
GE|BKB|-1.1073|116.9048|110.0|GEOFON Station GEOFON Station Balikpapan, Kalimantan|2009-06-09T00:00:00|2599-12-31T23:59:59
IA|LRTI|-8.2752|123.0|53.0|Station LRTI|2013-01-01T00:00:00|2599-12-31T23:59:59
XD|MGO|-10.402871|150.303696|108.0|Manago Village, Alotau|1999-07-17T08:05:11|2000-12-31T23:59:59
YC|SBE5|5.93328|118.010117|2.0|UMS|2018-03-12T05:15:00|2020-01-10T00:25:00
YO|ALBT4|-39.150261|174.125565|210.0|ALBT4|2001-10-01T00:00:00|2002-01-31T22:15:00
YC|SBA4|4.45879|116.589767|216.0|SK|2018-03-19T07:15:00|2020-01-14T09:05:00
GE|PLAI|-8.8275|117.7765|125.0|GEOFON Station Plampang, Sumbawa, Indonesia|2011-03-04T00:00:00|2599-12-31T23:59:59
IA|SMSI|0.9885|122.3654|85.39|Station Sumalata, BMG, Indonesia|2012-01-01T00:00:00|2599-12-31T23:59:59
XC|LAMA|-43.7122|169.464203|93.0|Lake Moeraki|1995-11-28T04:48:51|1996-12-31T23:59:59
ZN|WALA|-10.2734|150.788895|13.0|Walalaia, Papua New Guinea|2010-03-24T00:00:00|2011-12-31T23:59:59
YC|SBF4|6.37312|117.620827|20.0|Sk.|2018-03-10T07:00:00|2020-01-10T04:55:00
GE|PMBT|-2.927|104.772|30.0|GEOFON Station Palembang, Sumatra, Indonesia|2005-12-06T00:00:00|2009-05-29T00:00:00
YY|OBS51|18.349701|147.101303|-2757.0|LDEO OBS51|2003-06-19T00:00:00|2003-07-31T23:59:59
ZU|NZ20|-40.199501|170.750305|-714.0|SIO_OBS_ID: 122|2009-02-08T00:00:00|2010-01-27T23:59:59
7B|SA02|-17.3633|144.484695|0.0|QUEENSLAND, AUSTRALIA|1993-06-26T05:57:49|1993-08-05T18:19:48
RM|SZP|17.552|120.455002|100.0|Santa Ilocos Sur|2008-04-24T00:00:00|2599-12-31T23:59:59
S1|AUALB|-34.9995|117.9046|50.0|St Joseph's College|2013-09-26T00:00:00|2599-12-31T23:59:59
YS|SAVU|-10.5476|121.8613|120.0|Desa Raenyale village, Savu Island Indonesia|2014-10-14T00:00:00|2016-12-31T23:59:59
ZB|BURI|-3.1451|100.454102|35.0|Burie-200-50-10-05|2007-12-08T00:00:00|2008-10-19T23:00:00
YY|OBS55|19.4498|146.849701|-4735.0|LDEO OBS55|2003-06-18T00:00:00|2003-07-31T23:59:59
IA|PTKI|-0.14195|109.40296|36.0|Station Pontianak, Kalimantan, Indonesia (JISNET)|2006-03-03T00:00:00|2599-12-31T23:59:59
YC|SBF1|6.45216|116.498451|12.0|Kg.|2018-03-27T03:00:00|2020-01-17T04:30:00
7B|SC01|-13.4|131.507004|0.0|QUEENSLAND, AUSTRALIA|1994-05-26T05:45:37|1994-10-05T20:48:46
S1|AUBUS|-33.6601|115.3828|13.0|Georgiana Molloy Anglican School|2013-10-20T00:00:00|2599-12-31T23:59:59
AU|WR2|-19.946861|134.362381|385.4|Warramunga Array, Australia|1999-07-01T00:00:00|2599-12-31T23:59:59
Z6|OH10|-8.9728|110.3593|-1696.0|Station OH10, Indonesia|2004-05-03T00:00:00|2004-10-03T00:00:00
S1|AURSC|-38.368|144.8866|23.0|Rosebud Secondary College|2013-05-24T00:00:00|2599-12-31T23:59:59
AU|MLBS|-37.82915|144.89437|9.0|Scienceworks Melbourne|2013-03-01T00:00:00|2599-12-31T23:59:59
ZN|KEIA|-10.2123|150.553696|15.0|Keia, Papua New Guinea|2010-09-21T00:00:00|2011-12-31T23:59:59
YO|HOLT4|-39.428532|174.562881|280.0|HOLT4|2001-10-01T00:00:00|2002-01-31T21:55:00
IA|SCJI|-7.681|109.16892|45.0|Station Gunung Srandil, Java, BMG, Indonesia|2007-01-01T00:00:00|2599-12-31T23:59:59
AU|YARR|-33.6174|150.6877|19.0|Yarramundi, Sydney, NSW|2016-11-29T00:00:00|2599-12-31T23:59:59
1U|RBY|-36.816657|175.077896|170.0|Rocky Bay Waiheke|2023-01-01T00:00:00|2025-12-31T23:59:59
YY|OBS23|17.9659|146.716293|-3491.0|LDEO OBS23|2003-06-20T00:00:00|2004-04-30T23:59:59
ZB|F03S|-0.64755|100.59552|551.0|NO-secondary-sample-rate|2008-06-22T00:00:00|2008-10-20T20:29:29
YY|OBS53|18.7006|143.699295|-3656.0|LDEO OBS53|2003-06-16T00:00:00|2003-07-30T23:59:59
1U|RUC|-36.124113|174.011005|0.0|Ruawai College|2023-01-01T00:00:00|2025-12-31T23:59:59
IA|PBKI|-2.7047|111.6697|74.44|Station Pangkalan Bun, Kalimantan|2007-01-01T00:00:00|2599-12-31T23:59:59
AU|PSAD1|-21.455038|119.830154|280.0|Pilbara Seismic Array Element D1|2011-01-01T00:00:00|2599-12-31T23:59:59
7B|SA03|-20.337999|142.667801|0.0|QUEENSLAND, AUSTRALIA|1993-05-13T01:16:12|1993-10-05T03:22:28
XM|EWZA|-43.509998|170.8526|623.0|Erewhon|1994-01-25T00:00:00|1994-04-23T00:00:00
IA|UWJI|-6.4191|110.9474|61.52|Station Ujung Watu, Java|2009-01-01T00:00:00|2599-12-31T23:59:59
S1|AUSMG|-36.4161|148.6084|951.0|Snowy Mountains Grammar School|2013-03-18T00:00:00|2599-12-31T23:59:59
XU|COVA|-45.471199|161.161407|80.0|Deep Cove|1996-01-01T00:00:00|1997-12-31T23:59:59
XD|DELB|-7.56202|110.462578|1530.0|Deles|2001-01-24T06:35:45|2001-12-31T23:59:59
IA|TWSI|-8.7381|116.8821|86.6|Station Taliwang, Sumbawa, Indonesia (BMKG)|2009-01-01T00:00:00|2599-12-31T23:59:59
MI|PGNE|18.15277|145.7865|256.0|PGNE, Northern Marianas Islands|2013-06-01T00:00:00|2599-12-31T23:59:59
AU|PTPS|-33.172501|137.994293|9.0|Port Pirie JUMP, SA|2009-01-01T00:00:00|2599-12-31T23:59:59
AU|RK1H|-23.3876|150.493896|66.0|Rockhampton 1 Hard Rock JUMP, QLD|2009-01-13T00:00:00|2599-12-31T23:59:59
S1|AUGRF|-34.2858|146.059|132.0|Marian Catholic College|2019-04-01T00:15:53|2599-12-31T23:59:59
XD|SEHD|-9.941298|151.188126|83.0|Sehulea (Bwaruada Village), Normanby Island|1999-07-21T06:45:40|2000-12-31T23:59:59
XQ|6110|-38.665699|176.054596|462.0|Wairakei|2002-08-14T00:00:00|2002-11-02T00:00:00
YO|MOKT4|-38.96883|174.57547|125.0|MOKT4|2001-10-01T00:00:00|2002-02-01T04:15:00
AU|BW2S|-19.9984|148.223206|7.0|BOWEN SOFT JUMP QUEENSLAND|2012-08-02T00:00:00|2599-12-31T23:59:59
IA|DSRI|-0.4793|104.5778|58.43|Station Dabo, Singkep|2007-01-01T00:00:00|2599-12-31T23:59:59
7E|KB04|-15.9122|128.122498|121.0|QUEENSLAND, AUSTRALIA|1998-05-23T02:06:41|1998-07-20T01:40:31
YC|SBC3|5.2554|116.098557|278.0|Kg.|2018-03-21T02:30:00|2020-01-15T07:55:00
IA|BLSI|-5.3676|105.2452|146.79|Station Bandar Lampung, Sumatra|2007-01-01T00:00:00|2599-12-31T23:59:59
IA|RTBI|-8.4597|114.942|300.74|Station Rangdo, Negare, Bali, Indonesia (BMKG)|2009-01-01T00:00:00|2599-12-31T23:59:59
S1|AUROX|-30.5601|136.8971|106.0|Roxby Downs Area School|2013-09-02T00:00:00|2599-12-31T23:59:59
Z6|OH03|-9.8368|110.0433|-1853.0|Station OH03, Indonesia|2004-05-02T00:00:00|2004-10-02T00:00:00
IC|QIZ|19.02928|109.84398|240.0|Qiongzhong, Hainan Province, China|2001-02-18T00:00:00|2599-12-31T23:59:59
ZN|PEMM|-9.6207|149.794296|8.0|Pem_Mission, Papua New Guinea|2010-03-18T00:00:00|2011-12-31T23:59:59
MY|LDM|5.1777|118.498001|177.0|Lahad Datu|2005-02-17T00:00:00|2599-12-31T23:59:59
S1|AUMOU|-24.5752|149.9814|153.0|Moura State High School|2013-08-26T00:00:00|2599-12-31T23:59:59
ZU|NZ02|-43.998001|166.501099|-3816.0|SIO_OBS_ID: 128|2009-02-01T00:00:00|2010-02-04T23:59:59
TM|PBKT|16.573514|100.968755|803.0|Khao Kho, Phetchabun|2008-01-01T00:00:00|2599-12-31T23:59:59
ZB|C20S|-0.21448|100.320999|830.0|NO-secondary-sample-rate-Height-from-SRTM|2008-07-02T00:00:00|2008-10-23T20:29:29
G|PVC|-17.74|168.312|80.0|Port Vila - Efate island, Vanuatu|1994-06-01T00:00:00|2004-04-01T00:01:00
IA|TARAI|3.32712|117.57037|95.0|Station Tarakan, Kalimantan, Indonesia (JISNET)|2000-01-01T00:00:00|2599-12-31T23:59:59
IU|GUMO|13.5893|144.8684|170.0|Guam, Mariana Islands|1991-06-09T00:00:00|2599-12-31T23:59:59
AU|MTKN|-31.9333|115.773697|57.0|Mount Kenneth JUMP, WA|2009-06-27T00:00:00|2599-12-31T23:59:59
ZN|LITA|-8.5247|150.047302|10.0|LitabaIsland, Papua New Guinea|2010-03-16T00:00:00|2010-09-19T23:59:59
XQ|6150|-38.6576|176.005905|563.5|6150|2002-07-31T00:00:00|2002-11-04T00:00:00
YC|SBE4|6.05975|117.307152|32.0|Kg.|2018-03-10T06:50:00|2020-01-09T05:50:00
GE|TOLI|1.1214|120.7944|86.0|GEOFON Station GEOFON Station Tolitoli, Sulawesi|2008-06-30T00:00:00|2599-12-31T23:59:59
7B|SD08|-30.7208|130.410904|0.0|QUEENSLAND, AUSTRALIA|1995-03-27T09:03:22|1995-08-10T01:25:16
AU|BTL06|-17.04646|133.80311|0.233|Beetaloo Station, NT|2021-08-31T00:00:00|2021-09-07T00:37:11
AU|WR6|-19.954227|134.453049|356.5|Warramunga Array, Australia|1999-07-01T00:00:00|2599-12-31T23:59:59
XC|MAYA|-43.745399|171.3694|530.0|Mayfield|1995-11-13T03:37:46|1996-12-31T23:59:59
YS|MALK|-9.5794|124.8743|50.0|Betun village (Malaka), Timor Indonesia|2014-10-08T00:00:00|2016-12-31T23:59:59
ZU|NZ11|-43.299999|168.850204|-911.0|SIO_OBS_ID: 124|2009-02-04T00:00:00|2010-02-02T23:59:59
IA|SWJI|-7.7349|111.7669|723.33|Station Sawahan, Java|2007-01-01T00:00:00|2599-12-31T23:59:59
XC|CLIA|-46.291599|169.313507|352.0|Clinton|1995-11-12T22:58:30|1996-04-09T03:59:59
ZB|L10S|0.6458|100.867378|60.0|200-50-25-05-GPS-problems|2008-04-19T00:00:00|2009-03-11T20:29:29
AU|BTL02|-16.09792|132.82894|241.0|Avago Station, NT|2021-08-26T00:00:00|2021-09-07T00:37:11
ZB|F05S|-0.56638|100.34948|127.0|NO-secondary-sample-rate-No-protocoll|2008-06-27T02:01:37|2008-10-13T00:00:00
XM|MTHA|-42.894402|171.110306|60.0|Mount Harry|1994-01-25T00:00:00|1994-04-23T00:00:00
2O|BTL10|-16.693541|135.215949|276.0|Goanna Creek, NT|2023-06-23T00:00:00|2025-12-31T00:28:28
AU|QLP|-26.5837|144.235001|210.0|Quilpie, QLD|2003-11-13T00:00:00|2599-12-31T23:59:59
IA|IGBI|-8.8181|115.1456|248.0|Station Ingas, Indonesia (CN)|2006-01-01T00:00:00|2599-12-31T23:59:59
IA|LBMI|-0.6379|127.5008|113.91|Station Labuha, Bacan, Indonesia (BMKG)|2007-01-01T00:00:00|2599-12-31T23:59:59
AU|TV2S|-19.2904|146.788696|25.0|Townsville 2 Soft Rock Urban Monitoring, Queensland|2012-08-01T00:00:00|2024-08-22T00:00:00
YW|MSWL6|-32.321142|150.919118|242.0|Rapid Deployment Kit|2024-09-18T00:00:00|2025-12-31T23:59:59
IA|KMPI|-3.6616|133.7044|90.04|Station Kaimana, Papua, Indonesia (BMKG)|2009-01-01T00:00:00|2599-12-31T23:59:59
ND|JNKNC|-21.035|167.2724|36.0|Jinek|2019-11-24T18:00:00|2024-02-01T00:00:00
XD|EGM|-9.385922|151.939438|100.0|Egum Atoll|1999-10-18T20:52:04|2000-12-31T23:59:59
AU|LHI|-31.52|159.061295|73.7|Lord Howe Island|2007-07-08T00:00:00|2599-12-31T23:59:59
ZN|MAYA|-9.9483|150.880798|20.0|Mayabari, Papua New Guinea|2010-03-22T00:00:00|2011-12-31T23:59:59
S1|AUTAR|-42.9425|147.3551|25.0|Taroona High School|2013-11-01T00:00:00|2599-12-31T23:59:59
ZN|WAPO|-9.3548|150.532394|13.0|Wapolu, Papua New Guinea|2010-03-22T00:00:00|2010-10-27T23:59:59
IA|BLJI|-7.745|113.595|80.85|Station Banyuglugur, Java|2008-01-01T00:00:00|2599-12-31T23:59:59
1U|OCB|-35.842129|174.56879|76.0|Ocean Beach|2023-01-01T00:00:00|2025-12-31T23:59:59
2O|BTL02|-16.09792|132.82894|241.0|Avago Station, NT|2021-08-26T00:00:00|2025-12-31T00:00:00
GE|SANI|-2.0496|125.9881|30.0|GEOFON Station Sanana, Moluccas, Indonesia|2009-12-03T00:00:00|2599-12-31T23:59:59
IA|MPSI|0.3374|119.898|174.0|Station Mapaga, Sulawesi|2008-01-01T00:00:00|2599-12-31T23:59:59
AU|WOLH|-34.407|150.874|91.0|Wollongong Hard Rock, NSW|2011-03-23T00:00:00|2599-12-31T23:59:59
YS|MELO|-9.8698|120.6445|26.0|Melolo village, se Sumba Island Indonesia|2014-10-19T00:00:00|2016-12-31T23:59:59
AU|PSAD2|-21.61713|119.962402|366.0|Pilbara Seismic Array Element D2|2011-01-01T00:00:00|2599-12-31T23:59:59
1U|TEA|-37.495511|175.70459|114.0|Te Aroha|2023-01-01T00:00:00|2025-12-31T23:59:59
XC|MTCA|-43.7342|170.091293|859.0|Mt Cook|1995-11-11T03:27:43|1996-12-31T23:59:59
AU|KLBR|-31.591499|117.754601|320.0|Kellerberrin, Western Australia|2003-05-29T00:00:00|2599-12-31T23:59:59
GE|BNDI|-4.5224|129.9045|16.0|GEOFON Station Bandaneira, Indonesia|2008-07-04T00:00:00|2599-12-31T23:59:59
XD|GAM|-9.422573|150.800171|118.0|Gameta, Fergusson Island|1999-07-21T04:38:28|2000-12-31T23:59:59
AU|BW1H|-20.004499|148.236099|63.0|Bowen Hard JUMP, Queensland|2012-08-01T00:00:00|2599-12-31T23:59:59
ZN|KAW2|-8.5224|150.299393|50.0|Kawa_Island, Papua New Guinea|2010-09-18T00:00:00|2011-12-31T23:59:59
AU|NAPP|-33.1828|138.147797|181.0|Napperby JUMP, South Australia|2009-01-01T00:00:00|2599-12-31T23:59:59
S1|AUMTC|-37.6089|143.8771|48.0|Mt Clear College/Earth Ed|2013-05-24T00:00:00|2599-12-31T23:59:59
IA|ATNI|-9.0835|124.8644|404.62|Station Atambua, BMG, Indonesia|2012-01-01T00:00:00|2599-12-31T23:59:59
AU|KNRA|-15.6769|128.762802|126.0|Kununurra, WA|2008-08-21T00:00:00|2599-12-31T23:59:59
YC|SBB8|4.85014|118.12941|0.0|Paradise|2018-03-15T03:55:00|2020-01-11T08:00:00
YC|SBC2|5.2488|115.69165|6.0|Papar|2018-03-24T04:10:00|2020-01-16T05:20:00
IA|KRAI|-3.3184|128.3947|124.54|Station Karang Ratu, Ambon, Maluku, Indonesia (BMKG)|2009-10-20T00:00:00|2599-12-31T23:59:59
XT|VATI|-17.439322|177.761108|66.0|Vati|2001-07-30T05:21:10|2002-12-31T23:59:59
GE|FAKI|-2.91925|132.24889|136.0|GEOFON Station GEOFON Station Fak Fak, Irian Jaya|2008-12-01T00:00:00|2599-12-31T23:59:59
XB|ALI00|-41.710201|172.877396|692.0|-|2001-06-03T00:00:00|2001-12-21T00:00:00
ZN|KAWA|-8.522|150.299698|53.0|KawaIsl, Papua New Guinea|2010-03-15T00:00:00|2010-09-07T23:59:59
IA|RBSI|-5.84445|105.742|224.44|Station Rajabasa, Sumatra|2008-01-01T00:00:00|2599-12-31T23:59:59
AU|QIS|-20.557699|139.605194|450.0|Mount Isa, Qld|2005-02-06T00:00:00|2599-12-31T23:59:59
YC|SBD7|5.64967|118.129547|0.0|Kuala|2018-03-13T03:30:00|2020-01-10T07:15:00
AU|LCRK|-30.447201|138.216202|207.0|Leigh Creek,South Australia|2013-06-16T00:00:00|2599-12-31T23:59:59
XT|KYSI|-17.878668|177.759399|158.0|Keyasi|2001-07-27T02:08:56|2002-12-31T23:59:59
YC|KINA|6.05826|116.565933|3261.0|Mt|2018-03-28T01:35:00|2020-01-18T08:25:00
ZC|ANAH|16.3643|145.633698|58.0|Anatahan Island, Northern Mariana Islands|2006-07-29T00:00:00|2008-01-01T00:00:00
XP|0391|-39.019299|175.770996|680.0|Turangi|1994-01-01T00:00:00|1995-04-11T00:00:00
IA|MWPI|-0.93|134.0431|70.0|Station Manokwari, Indonesia (CN)|2009-07-19T00:00:00|2599-12-31T23:59:59
IA|YOGI|-7.817|110.295|171.0|Station Yogyakarta, Indonesia (CN)|2006-01-01T00:00:00|2599-12-31T23:59:59
AU|MTN|-12.8436|131.132706|137.399993896|Manton Dam, Northern Territory|2006-08-11T00:00:00|2599-12-31T23:59:59
AU|NTLS|-32.931999|151.762497|13.0|Newcastle Soft JUMP, New South Wales|2010-09-10T00:00:00|2599-12-31T23:59:59
7E|KB07|-16.697701|125.919502|524.0|QUEENSLAND, AUSTRALIA|1998-05-24T06:06:09|1998-07-23T03:03:19
XT|NVLA|-17.659796|177.810944|153.0|Navala|2001-08-01T03:29:54|2002-12-31T23:59:59
5A|KAVI|-2.56941|150.804428|18.0|KAVIENG|2014-11-23T02:00:00|2016-08-21T00:00:00
XO|PAGE|18.120707|145.766876|73.0|Pagan east|2003-05-25T00:00:00|2004-12-31T23:59:59
XQ|6670|-38.4977|175.431305|473.0|6670|2002-07-22T00:00:00|2002-11-02T00:00:00
XO|SAP1|15.285745|145.80928|100.0|Saipan 1|2003-04-30T05:28:06|2004-12-31T23:59:59
XT|NAU|-0.506318|166.932632|1.0|Nauru|1994-03-28T05:44:54|1996-12-31T23:59:59
IA|KPJI|-7.3333|108.931|111.0|Station Karang Pucung, Java|2008-01-01T00:00:00|2599-12-31T23:59:59
AU|PSAD3|-21.642984|119.779861|327.0|Pilbara Seismic Array Element D3|2011-01-01T00:00:00|2599-12-31T23:59:59
S1|AUCAS|-34.2637|135.7219|72.0|Cummins Area School|2013-08-26T00:00:00|2599-12-31T23:59:59
YS|BKOR|-8.4868|122.5509|83.0|Bangkoor village, e Flores Island Indonesia|2014-10-28T00:00:00|2016-12-31T23:59:59
SS|SAIP|15.2143|145.751907|229.0|SAIP|2007-02-06T00:00:00|2014-01-01T00:00:00
G|DZM|-22.07164|166.44377|878.0|Dzumac - New Caledonia, France|2003-09-01T00:00:00|2599-12-31T23:59:59
2O|BTL03|-16.86486|133.09611|234.0|Buchannan Downs, NT|2021-09-10T00:00:00|2025-12-31T00:28:28
IA|BSSI|-6.1428|120.4904|114.3|Station Benteng, P.Selayar, Indonesia (BMKG)|2009-01-01T00:00:00|2599-12-31T23:59:59
ZC|TIN1|14.9603|145.641205|67.0|Tinian Island, Northern Mariana Islands|2006-07-31T00:00:00|2008-01-01T00:00:00
Z6|OS08|-9.4403|110.1685|-1224.0|Station OS08, Indonesia|2004-05-02T00:00:00|2004-10-02T00:00:00
AU|NTLH|-32.8983|151.703003|64.0|Newcastle Hard Rock JUMP, New South Wales|2012-09-25T00:00:00|2599-12-31T23:59:59
AU|RKGY|-34.6094|116.9773|30.0|Rocky Gully, WA|1999-09-27T00:00:00|2599-12-31T23:59:59
TM|NONG|18.063498|103.1458|173.0|Phon Phisai, Nong Khai|2008-01-01T00:00:00|2599-12-31T23:59:59
IA|SKJI|-7.0053|106.5563|100.35|Station Sukabumi, Java|2007-01-01T00:00:00|2599-12-31T23:59:59
XT|PNI|7.006|158.15184|1.0|Pohnpei|1995-07-10T00:57:11|1996-12-31T23:59:59
7B|SD06|-28.4963|135.9021|0.0|QUEENSLAND, AUSTRALIA|1995-03-18T02:38:47|1995-05-24T02:28:47
IA|RGRI|-0.3491|102.3338|40.93|Station Rengat, Sumatra|2007-01-01T00:00:00|2599-12-31T23:59:59
XM|WTRA|-43.2789|170.358994|60.0|Whataroa|1994-01-25T00:00:00|1994-04-23T00:00:00
YY|OBS44|18.3027|145.619095|-2585.0|LDEO OBS44|2003-06-18T00:00:00|2004-05-08T23:59:59
XO|SAP4|15.174628|145.771225|116.0|Saipan 4|2003-06-27T08:28:57|2004-12-31T23:59:59
ZC|SAIP|15.2143|145.751907|229.0|Saipan, Northern Mariana Island|2006-08-03T00:00:00|2008-12-31T23:59:59
ND|PINNC|-22.6129|167.4465|21.0|L'Ile-des-Pins|2011-10-21T00:00:00|2500-12-31T23:59:59
IU|PMG|-9.4047|147.1597|90.0|Port Moresby, New Guinea|1993-09-10T00:00:00|2599-12-31T23:59:59
ZU|NZ28|-45.963902|171.751404|-1328.0|SIO_OBS_ID: 133|2009-02-16T00:00:00|2010-02-11T23:59:59
AU|PSAA1|-21.576689|119.836227|325.0|Pilbara Seismic Array Element A1|2011-01-01T00:00:00|2599-12-31T23:59:59
AU|BN2S|-27.3293|153.047699|8.0|Brisbande 2 Soft JUMP, Queensland|2009-01-01T00:00:00|2599-12-31T23:59:59
ZB|MLKR|-2.9593|100.194603|22.0|Malakopa-newID|2008-04-25T10:18:53|2008-10-14T00:00:00
AU|TV1H|-19.2614|146.795395|65.0|Townsville 1 Hard JUMP, Queensland|2009-01-01T00:00:00|2599-12-31T23:59:59
AU|CMSA|-31.5375|145.691605|220.0|Cobar, New South Wales|2001-06-26T00:00:00|2599-12-31T23:59:59
XB|BBKB|-41.717098|172.932205|1357.0|-|2001-12-24T00:00:00|2002-12-31T23:59:59
AU|PSAB3|-21.593241|119.854675|327.0|Pilbara Seismic Array Element B3|2011-01-01T00:00:00|2599-12-31T23:59:59
XP|0097|-38.856499|176.414001|500.0|Rangitaiki|1994-01-01T00:00:00|1995-04-11T00:00:00
ZN|E|-10.0805|150.621307|-1400.0|SIO OBS ID E|2010-03-02T00:00:00|2011-01-26T23:59:59
IA|KKSI|-4.1718|121.6513|89.03|Station Kolaka, Sulawesi, Indonesia (BMKG)|2009-01-01T00:00:00|2599-12-31T23:59:59
YC|SBA8|4.43208|118.095222|156.0|Teck|2018-03-15T05:10:00|2020-01-12T03:00:00
IA|SRBI|-8.0848|115.2126|111.5|Station Singaraja, Bali|2008-01-01T00:00:00|2599-12-31T23:59:59
XB|TOPS|-41.801899|172.851196|637.0|-|2001-07-24T00:00:00|2001-12-21T00:00:00
YC|SBB5|4.73101|116.885742|1050.0|Maliau|2018-03-17T07:55:00|2020-01-14T11:25:00
IA|CTJI|-7.00754|109.18356|104.0|Station Waduk Cacaban, Java, BMG, Indonesia|2007-01-01T00:00:00|2599-12-31T23:59:59
AU|WR5|-19.952171|134.430374|364.2|Warramunga Array, Australia|1999-07-01T00:00:00|2599-12-31T23:59:59
XD|ESA|-9.739139|150.811981|133.0|Esa-Ala,  Normanby Island|1999-07-19T02:22:29|2000-12-31T23:59:59
IA|TARA|3.32712|117.57037|95.0|Station Tarakan, Indonesia|2005-01-01T00:00:00|2599-12-31T23:59:59
S1|AUSSC|-38.0977|147.0825|19.0|Sale College|2013-11-21T00:00:00|2599-12-31T23:59:59
XC|DOTA|-45.52993|167.273712|255.3|Doubtful Sound, New Zealand|1996-02-27T23:00:00|1996-12-31T23:59:59
XU|DOTA|-45.5299|167.273697|255.3|Doubtful Sound, New Zealand|1996-02-27T23:00:00|1996-12-31T23:59:59
S1|AUDAR|-35.253|149.1377|575.0|Daramalan College|2012-04-11T00:00:00|2599-12-31T23:59:59
AU|WB5|-19.878218|134.366196|370.9|Warramunga Array, Australia|1999-07-01T00:00:00|2599-12-31T23:59:59
AU|AS31|-23.666|133.904007|607.0|Alice Springs Array Element 31 BroadBand|2005-06-21T00:00:00|2599-12-31T23:59:59
XC|BLBA|-41.713902|173.877396|253.0|Blackbirch|1995-11-13T04:04:40|1996-12-31T23:59:59
IA|JCJI|-6.7344|108.2631|85.57|Station Jatiwangi, Indonesia|2006-01-01T00:00:00|2599-12-31T23:59:59
7B|SC08|-22.274799|131.367203|0.0|QUEENSLAND, AUSTRALIA|1994-06-02T07:52:09|1994-10-18T23:59:59
AU|WR8|-19.955793|134.500504|367.1|Warramunga Array, Australia|1999-07-01T00:00:00|2599-12-31T23:59:59
XO|SAP5|15.132323|145.707626|74.0|Saipan 5|2003-05-05T05:43:39|2004-12-31T23:59:59
XO|TIN1|15.048357|145.612411|126.0|Tinian 1|2003-05-16T07:33:42|2004-12-31T23:59:59
TM|LOEI|17.5093|101.6244|305.0|Nam Man, Loei|2008-01-01T00:00:00|2599-12-31T23:59:59
ZN|TAWA|-10.2683|150.773895|10.0|Tawali, Papua New Guinea|2010-09-21T00:00:00|2011-12-31T23:59:59
7B|SD01|-25.0338|128.303497|0.0|QUEENSLAND, AUSTRALIA|1995-05-27T09:04:29|1995-05-31T23:20:29
YY|OBS25|18.0333|147.282501|-3723.0|LDEO OBS25|2003-06-19T00:00:00|2003-07-31T23:59:59
ZU|NZ06|-39.749802|168.001099|-859.0|SIO_OBS_ID: 113|2009-02-03T00:00:00|2010-01-29T23:59:59
AU|BLDU|-30.6147|116.709099|280.0|Ballidu, Western Australia|2003-05-27T00:00:00|2599-12-31T23:59:59
YY|OBS45|18.3311|145.900208|-2669.0|LDEO OBS45|2003-06-18T00:00:00|2003-07-31T23:59:59
ZU|NZ19|-40.750198|170.900406|-549.0|SIO_OBS_ID: 120|2009-02-08T00:00:00|2010-01-27T23:59:59
S1|AUANU|-35.2839|149.1139|555.0|Australian National University|2022-11-01T11:32:11|2599-12-31T23:59:59
XD|SEHE|-9.98866|151.152985|91.0|Sehulea (Weioko Village), Normanby Island|1999-07-21T23:09:56|2000-12-31T23:59:59
7B|SB06|-35.036659|140.146194|0.0|QUEENSLAND, AUSTRALIA|1993-11-24T02:08:28|1994-04-13T03:56:08
MI|HTSP|15.23166|145.79851|38.0|HUB|2011-03-20T00:00:00|2599-12-31T23:59:59
XP|0145|-38.049999|175.667007|300.0|Cambridge|1994-03-01T00:00:00|1995-04-11T00:00:00
GE|PMG|-9.4047|147.1597|90.0|(GSN) IRIS/USGS (IU),GEOFON(GE)Poseidon,PM Geo Obs|1993-09-10T00:00:00|2599-12-31T23:59:59
YC|SBC9|5.19098|118.946098|74.0|Pelita|2018-03-14T04:05:00|2020-01-11T03:50:00
IA|BJI|-7.3329|109.7096|629.0|Station Banjarnegara, Indonesia|2005-01-01T00:00:00|2599-12-31T23:59:59
AU|OKDL|-34.0707|150.4805|508.0|Oakdale, Sydney, NSW|2017-02-17T00:00:00|2599-12-31T23:59:59
1U|ATI|-36.321969|174.374467|74.0|Ätiu Creek Regional Park|2023-01-01T00:00:00|2025-12-31T23:59:59
S1|AULRC|-29.4262|147.979|145.0|Lightning Ridge Central School|2013-08-29T00:00:00|2599-12-31T23:59:59
2O|BTL05|-16.4788|133.88445|285.0|Amungee Mungee, NT|2021-08-25T00:00:00|2025-12-31T00:00:00
ZU|NZ14|-42.6506|169.949997|-633.0|SIO_OBS_ID: 114|2009-02-06T00:00:00|2010-01-31T23:59:59
XD|MISB|-10.653481|152.797668|345.0|Misima Mines B, Misima Island|1999-07-25T07:03:06|2000-12-31T23:59:59
XC|ARPA|-42.974899|171.578705|710.0|Arthurs Pass|1995-11-11T05:04:00|1996-03-24T00:00:00
XQ|4900|-38.7728|176.222504|736.5|White Gate Gravel Dump|2002-08-19T00:00:00|2002-11-01T00:00:00
YC|SBB3|4.9564|116.140961|394.0|SK|2018-03-20T04:35:00|2020-01-15T03:45:00
MY|SBM|2.4529|112.213997|237.0|Sibu|2005-02-17T00:00:00|2599-12-31T23:59:59
IA|TBJI|-6.8179|111.8481|54.45|Station Tambak Boyo, Java|2008-01-01T00:00:00|2599-12-31T23:59:59
CD|QIZ|19.0294|109.8433|230.0|Qiongzhong, Hainan Province, China|1992-05-18T00:00:00|2001-02-18T00:00:00
ZU|NZ12|-43.001701|169.598602|-625.0|SIO_OBS_ID: 127|2009-02-05T00:00:00|2010-02-02T23:59:59
YC|SBC4|5.27107|116.515732|381.0|Bornion|2018-03-20T07:30:00|2020-01-15T05:15:00
YC|SBA9|4.43637|118.539917|21.0|Semporna|2018-03-15T06:30:00|2020-01-12T03:10:00
XD|MISC|-10.674984|152.784119|292.0|Misima Mines C, Misima Island|1999-07-25T01:42:32|2000-12-31T23:59:59
YO|OTOT4|-39.69669|174.480865|113.0|OTOT4|2001-10-01T00:00:00|2002-01-31T06:45:00
7B|SD04|-28.510401|128.988693|0.0|QUEENSLAND, AUSTRALIA|1995-03-29T04:27:42|1995-04-17T21:37:42
IA|TLE|-5.6373|132.7373|113.0|Station Tual, Indonesia|2005-01-01T00:00:00|2009-12-11T00:00:00
YO|WAST5|-38.998791|174.334076|48.0|WAST5|2002-01-17T02:00:00|2002-02-01T04:00:00
YY|OBS06|16.083401|145.165695|-3608.0|LDEO OBS06|2003-06-23T00:00:00|2003-07-31T23:59:59
S1|AUMAR|-34.8916|138.6357|153.0|Marden Senior College|2013-08-26T00:00:00|2599-12-31T23:59:59
Z6|OH04|-9.8535|110.7715|-2908.0|Station OH04, Indonesia|2004-05-02T00:00:00|2004-10-03T00:00:00
GE|JAGI|-8.4702|114.1521|171.0|GEOFON Station GEOFON Station Jajag, Java|2008-07-21T00:00:00|2599-12-31T23:59:59
YS|NOMU|-9.5565|124.5051|361.0|Bikomi/Noemute village, Timor Indonesia|2014-10-09T00:00:00|2016-12-31T23:59:59
AU|INKA|-27.740999|140.745605|112.0|Innamincka, South Australia|2013-06-21T00:00:00|2599-12-31T23:59:59
PS|CHUK|7.4638|151.8554|10.0|Chuuk, Micronesia|2014-09-01T00:00:00|2599-12-31T23:59:59
XU|CHTA|-43.771198|151.158401|15.0|Chatam Island|1996-04-11T23:04:30|1997-12-31T23:59:59
IA|RKPI|-1.5107|134.1773|106.2|Station Ransiki, Papua; Indonesia (BMKG)|2009-01-01T00:00:00|2599-12-31T23:59:59
7B|SD07|-31.0807|125.321602|0.0|QUEENSLAND, AUSTRALIA|1995-03-26T07:49:27|1995-07-08T00:00:00
XD|KUMB|-7.539823|110.447723|2901.0|Point Kum, summit|2001-03-17T05:17:22|2001-12-31T23:59:59
TM|NAYO|14.3152|101.3209|106.0|Khun Dan Dam, Nakhon Nayok|2008-01-01T00:00:00|2599-12-31T23:59:59
7D|KA10|-16.596201|128.478699|180.0|QUEENSLAND, AUSTRALIA|1997-07-28T03:47:54|1997-10-14T02:44:24
YY|OBS47|18.250099|145.769302|-1898.0|LDEO OBS47|2003-06-18T00:00:00|2004-05-08T23:59:59
ZN|SIMS|-8.4195|150.439804|15.0|SimsimaIsland, Papua New Guinea|2010-03-17T00:00:00|2011-12-31T23:59:59
ZN|D|-9.9434|150.707001|-1040.0|SIO OBS ID D|2010-03-02T00:00:00|2011-01-26T23:59:59
YS|TL8B|-8.392|127.2574|423.0|Tutuala Village, e Timor Leste|2018-06-06T00:00:00|2018-12-31T23:59:59
IU|FUNA|-8.5259|179.1966|20.0|Funafuti, Tuvalu|2004-01-21T20:24:00|2599-12-31T23:59:59
YS|LEGO|-9.7124|123.9533|889.0|Lelogama village, Timor Indonesia|2014-11-19T00:00:00|2016-12-31T23:59:59
AU|MOO|-42.4417|147.190308|325.0|Moorlands, Tasmania|2005-05-13T00:00:00|2599-12-31T23:59:59
YC|SBG3|6.8317|117.159042|22.0|AFI|2018-03-09T04:50:00|2020-01-08T08:35:00
S1|AURMK|-34.1728|140.7404|26.0|Renmark High School|2013-08-26T00:00:00|2599-12-31T23:59:59
AU|ONGER|-33.86366|118.39563|340.0|Ongerup, WA|2020-06-25T03:42:35|2024-07-24T23:59:59
XP|0488|-38.395401|176.059006|300.0|Atiamuri|1994-01-01T00:00:00|1995-04-11T00:00:00
IA|ABJI|-7.7957|114.2342|144.36|Station Asem Bagus, Java|2008-01-01T00:00:00|2599-12-31T23:59:59
IA|KLI|-4.8363|104.87052|64.0|Station Kotabumi, Indonesia|2006-01-01T00:00:00|2599-12-31T23:59:59
AU|NFK|-29.043301|167.938904|203.0|Norfolk Island|2008-05-20T00:00:00|2599-12-31T23:59:59
AU|STKA|-31.8757|141.596405|230.0|Stephens Creek, NSW|1994-03-29T00:00:00|2599-12-31T23:59:59
ZB|SWLT|-1.2589|100.473|28.0|X|2007-12-01T00:00:00|2008-10-21T23:00:00
IA|EDFI|-8.7497|121.6903|914.34|Station Ende, Flores, Indonesia (BMKG)|2009-01-01T00:00:00|2599-12-31T23:59:59
XP|0553|-38.149502|176.167007|500.0|Rotorua|1994-01-01T00:00:00|1995-04-11T00:00:00
YW|RDK10|-32.53774|150.90957|165.0|Muswellbrook site1|2021-05-23T00:00:00|2025-12-31T23:59:59
YC|SBF3|6.44177|117.314308|26.0|Meridian|2018-03-10T05:25:00|2020-01-09T02:35:00
S1|AUNRC|-23.3529|150.5329|38.0|North Rockhampton State High School|2013-09-01T00:00:00|2599-12-31T23:59:59
AU|ARPS|-36.769901|141.838303|250.0|Mt Arapiles, VIC|2000-10-28T00:00:00|2599-12-31T23:59:59
ND|LAKNC|-20.9326|165.3218|27.0|lycée Antoine Kéla|2019-11-12T16:25:00|2021-07-19T02:15:00
YC|SBA3|4.57347|116.276604|189.0|Sk.|2018-03-19T07:05:00|2019-12-21T00:15:00
ZN|SIDA|-9.6343|150.598297|17.0|Sidayodayo, Papua New Guinea|2010-03-21T00:00:00|2010-05-26T23:59:59
II|KAPI|-5.0142|119.7517|300.0|Kappang, Sulawesi, Indonesia|1999-02-06T00:00:00|2599-12-31T23:59:59
AU|MTSU|-18.148199|144.319504|460.0|Mount Surprise, QLD|2002-11-06T00:00:00|2599-12-31T23:59:59
IA|CMJI|-7.784|108.449|78.0|Station Cimerak, Java|2008-01-01T00:00:00|2599-12-31T23:59:59
XO|SAP2|15.234013|145.767029|219.0|Saipan 2|2003-05-02T08:25:31|2004-12-31T23:59:59
YS|NAPU|-9.3939|119.93|217.0|Napu village, north Sumba Island Indonesia|2014-10-20T00:00:00|2016-12-31T23:59:59
ZN|MAPA|-9.6104|150.4375|20.0|Mapamoiwa, Papua New Guinea|2010-03-21T00:00:00|2010-09-07T23:59:59
MS|UBIN|1.4179|103.953796|26.0|Ubin|2009-03-25T00:00:00|2599-12-31T23:59:59
IA|JMBI|-1.6335|103.6417|50.0|Station Jambi, Indonesia (CN)|2006-01-01T00:00:00|2599-12-31T23:59:59
5A|ARAWA|-6.22292|155.563797|0.0|ARAWA Bougainville|2014-11-19T06:47:00|2016-08-20T00:00:00
IU|NWAO|-32.9277|117.239|380.0|Narrogin, Australia|1991-11-25T00:00:00|2599-12-31T23:59:59
7B|SC02|-14.8857|134.004501|0.0|QUEENSLAND, AUSTRALIA|1994-05-25T05:17:44|1994-08-10T20:54:33
IA|MTNI|-8.636|116.1707|108.3|Station Mataram, Plombok|2007-01-01T00:00:00|2010-04-20T00:00:00
II|KWJN|9.2873|167.5369|0.0|Gagan, Kwajalein Atoll, Marshall Islands|2017-07-29T00:00:00|2599-12-31T23:59:59
IA|MMPI|-8.5181|140.4141|98.57|Station Merauke, Indonesia|2006-01-01T00:00:00|2599-12-31T23:59:59
ND|MARNC|-21.4809|168.0305|44.0|Maré|2011-11-03T00:00:00|2500-12-31T23:59:59
YC|SBD2|5.67735|116.039597|4.0|D'buguk|2018-03-23T04:20:00|2019-10-28T12:40:00
7B|SD02|-25.190701|133.325104|0.0|QUEENSLAND, AUSTRALIA|1995-03-20T06:17:30|1995-05-07T06:37:30
XD|SEHA|-9.961867|151.163422|115.0|Sehulea (Hilltop), Normanby Island|1999-07-20T00:48:40|2000-12-31T23:59:59
ZN|ESA2|-9.7399|150.816193|28.0|EsaAla, Papua New Guinea|2010-03-13T00:00:00|2011-12-31T23:59:59
ND|YATNC|-22.059|166.891|237.0|Yaté|2012-03-20T00:00:00|2021-11-04T00:00:00
YC|SBC8|5.32373|118.045227|25.0|Ong|2018-03-13T04:55:00|2020-01-10T14:25:00
S1|AUDCS|-32.2334|148.6278|276.0|Dubbo College Senior Campus|2013-05-30T00:00:00|2599-12-31T23:59:59
IA|SRPI|-1.87|136.24|87.91|Station Serui, Papua, Indonesia (BMKG)|2009-01-01T00:00:00|2599-12-31T23:59:59
2O|BTL01|-15.19414|132.54079|179.0|Nenen Station, NT|2021-09-13T00:00:00|2025-12-31T00:28:28
II|WRAB|-19.9336|134.36|366.0|Tennant Creek, NT, Australia|1994-03-27T00:00:00|2599-12-31T23:59:59
XQ|4645|-38.896599|176.475906|750.5|Matea Rd SP Site|2002-07-24T00:00:00|2002-11-01T00:00:00
ZN|BAYA|-9.6057|149.474503|13.0|Bayawa, Papua New Guinea|2010-03-15T00:00:00|2011-12-31T23:59:59
3B|WYKM5|-31.3114|117.57814|303.0|3B-WYKM5|2024-08-22T00:00:00|2025-01-16T00:00:00
XT|GAUF|-18.115017|179.337158|66.0|Gau Island|2001-08-06T06:11:43|2002-12-31T23:59:59
YY|OBS27|17.888|144.744293|-3883.0|LDEO OBS27|2003-06-23T00:00:00|2003-07-27T23:59:59
MY|KOM|1.7922|103.846703|49.0|Kota Tinggi|2005-02-17T00:00:00|2599-12-31T23:59:59
IA|MDSI|-4.4861|104.1783|111.0|Station Muara Dua, Sumatra|2008-01-01T00:00:00|2599-12-31T23:59:59
IA|NBPI|-3.3656|135.4972|98.81|Station NBPI (ex-JAY1)|2012-10-26T00:00:00|2599-12-31T23:59:59
XP|0261|-38.280102|176.365005|400.0|Rainbow|1994-01-01T00:00:00|1995-04-11T00:00:00
MI|PGSE|18.12045|145.79561|100.0|PGSE, Northern Marianas Islands|2013-06-01T00:00:00|2599-12-31T23:59:59
YO|WAST4|-38.99855|174.333755|56.0|WAST4|2001-10-01T00:00:00|2002-01-08T05:00:00
YY|OBS43|18.276199|145.382401|-3338.0|LDEO OBS43|2003-06-18T00:00:00|2003-07-31T23:59:59
GE|SOEI|-9.7553|124.2672|1047.0|GEOFON Station GEOFON Station Soe, Timor|2006-12-13T00:00:00|2599-12-31T23:59:59
2O|BTL04|-15.84238|133.93432|313.0|Nutwood Downs, NT|2021-08-27T00:00:00|2025-12-31T00:00:00
7B|SD05|-29.001301|133.585098|0.0|QUEENSLAND, AUSTRALIA|1995-03-19T04:34:23|1995-08-04T14:27:14
IM|WRA|-19.9426|134.339005|419.0|Warramunga Array Beam|2004-01-19T00:00:00|2599-12-31T23:59:59
ZN|F|-9.9505|150.200394|-1358.0|SIO OBS ID F|2010-03-02T00:00:00|2011-01-26T23:59:59
IA|SGSI|3.686|125.5286|100.47|Station Sangihe, BMG|2007-01-01T00:00:00|2599-12-31T23:59:59
XT|KOS|5.3238|163.008698|1.0|Kosrae Micronesia|1994-01-18T05:24:02|1996-12-31T23:59:59
AU|WATNG|-30.7323|118.19845|360.0|Wattoning, WA|2020-06-12T00:00:00|2024-03-23T00:00:00
YC|SBD1|5.60898|115.608299|91.0|Kg.|2018-03-24T08:00:00|2020-01-16T02:35:00
ZN|GARU|-10.2205|150.484802|28.0|Garuahi, Papua New Guinea|2010-03-09T00:00:00|2010-04-18T23:59:59
ZU|NZ03|-43.001801|165.999496|-4225.0|SIO_OBS_ID: 132|2009-02-02T00:00:00|2010-02-05T23:59:59
XC|LUDA|-45.033501|169.687103|382.0|Lauder|1995-11-16T01:26:47|1996-12-31T23:59:59
ND|ONTNC|-22.3073|166.454|107.0|Ouen Toro|2011-03-04T00:00:00|2500-12-31T23:59:59
AU|KANBL|-30.58925|121.61459|395.0|Kanowna Belle, WA|2020-06-15T00:00:00|2020-12-31T23:59:59
S1|AUPHS|-31.099|150.8943|404.0|Peel High School|2013-05-30T00:00:00|2599-12-31T23:59:59
IA|SGKI|0.530205|117.604347|182.0|Station Sangata, Kalimantan, Indonesia (BMKG)|2009-01-01T00:00:00|2599-12-31T23:59:59
GE|SMRI|-7.04915|110.44067|203.0|GEOFON Station GEOFON Station Semarang, Java|2006-11-01T00:00:00|2599-12-31T23:59:59
IA|KLNI|-8.42188|116.09492|99.0|Station Mataram, Plombok, BMG, Indonesia|2007-01-01T00:00:00|2599-12-31T23:59:59
AU|WB3|-19.923019|134.355453|384.2|Warramunga Array, Australia|1999-07-01T00:00:00|2599-12-31T23:59:59
1U|COV|-36.573946|175.391024|75.0|Colville|2023-01-01T00:00:00|2025-12-31T23:59:59
YO|MROT4|-39.42046|174.125565|295.0|MROT4|2001-10-01T00:00:00|2002-02-01T06:50:00
MI|GOLF|15.22511|145.78625|75.0|HUB|2011-03-20T00:00:00|2599-12-31T23:59:59
XD|KUL1|-9.088609|152.715424|126.0|Kulumwadao #1, Woodlark Island|1999-07-26T01:46:38|2000-12-31T23:59:59
IA|KSI|-3.6517|102.5929|539.0|Station Kepahiang, Indonesia|2005-01-01T00:00:00|2599-12-31T23:59:59
YC|SBC5|5.28637|116.88076|83.0|SK|2018-03-11T04:05:00|2020-01-09T06:20:00
AU|EIDS|-25.369101|151.081696|216.0|Eidsvold, Queensland|2003-06-23T00:00:00|2599-12-31T23:59:59
XQ|6220|-38.635101|175.920197|461.0|6220|2002-07-04T00:00:00|2002-11-04T00:00:00
GE|MNAI|-4.3605|102.9557|154.0|GEOFON Station GEOFON Station Manna, Sumatra|2006-07-27T00:00:00|2599-12-31T23:59:59
IA|CGJI|-6.6134|105.69|182.0|Station Cigeulis, Java|2008-01-01T00:00:00|2599-12-31T23:59:59
AU|MABG|-34.0721|150.7601|132.0|Mount Annan Botanical Gardens|2016-08-17T00:00:00|2599-12-31T23:59:59
MI|PGR2|18.11516|145.77548|119.0|PGR2, Northern Marianas Islands|2013-06-01T00:00:00|2599-12-31T23:59:59
S1|AUTOO|-27.5452|151.9668|687.0|Toowoomba State High School|2013-08-26T00:00:00|2599-12-31T23:59:59
AU|WR10|-19.959661|134.540527|353.0|Warramunga, NT|2013-08-26T00:00:00|2599-12-31T23:59:59
IA|GRJI|-6.9145|112.4793|97.14|Station Gresik, Java|2008-01-01T00:00:00|2599-12-31T23:59:59
XO|GUA2|13.36315|144.759201|163.0|Guam 2|2003-05-08T09:01:19|2004-12-31T23:59:59
XD|SEHC|-9.955982|151.177917|103.0|Sehulea (Sipupu Village), Normanby Island|1999-07-21T06:44:51|2000-12-31T23:59:59
XU|MTJA|-43.9856|170.464905|1042.0|Mt John|1996-04-08T00:00:00|1997-02-11T23:59:59
S1|AUHPC|-38.1068|142.3183|11.0|Hawkesdale P12 School|2013-05-24T00:00:00|2599-12-31T23:59:59
ZB|C10S|-0.26343|100.439903|867.0|200-50-10-05|2008-06-24T01:00:00|2008-10-21T02:40:29
MS|BTDF|1.3617|103.775|57.0|Bukit Timah Dairy Farm|1996-01-01T00:00:00|2599-12-31T23:59:59
ZB|MAKA|-2.852|100.275398|19.0|Makalo-200-50-10-05|2007-12-06T00:00:00|2008-10-19T23:00:00
7D|KA03|-15.9282|127.247803|333.0|QUEENSLAND, AUSTRALIA|1997-07-21T08:21:59|1997-10-07T13:51:59
AU|PSAB1|-21.568909|119.821869|317.0|Pilbara Seismic Array Element B1|2011-01-01T00:00:00|2599-12-31T23:59:59
ZB|MLKN|-5.3526|102.2715|27.0|Enggano Isand-200-50-10-05|2008-01-16T00:00:00|2008-10-19T23:00:00
IA|LWLI|-5.0175|104.0589|938.05|Station Liwa, Sumatra|2007-01-01T00:00:00|2599-12-31T23:59:59
YC|SBD4|5.66416|116.876907|300.0|Kg.|2018-03-11T03:50:00|2020-01-09T01:50:00
IA|GTOI|0.76|122.87|301.0|Station Gorontalo, Indonesia (CN)|2006-01-01T00:00:00|2599-12-31T23:59:59
AU|XMI|-10.4501|105.6884|252.0|Christmas Island Airport|2007-11-19T00:00:00|2599-12-31T23:59:59
AU|RIV|-33.829399|151.158295|25.0|St Ignatius College, Riverview, Sydney|2004-11-09T00:00:00|2599-12-31T23:59:59
IU|HNR|-9.4387|159.9475|100.0|Honiara, Solomon Islands|1993-10-22T00:00:00|2599-12-31T23:59:59
AU|WC2|-19.925379|134.365448|375.0|Warramunga Array, Australia|1999-07-01T00:00:00|2599-12-31T23:59:59
YS|KPAR|-9.802|119.9462|600.0|Kambapari village, Sumba Island Indonesia|2014-10-21T00:00:00|2016-12-31T23:59:59
IA|TNG|-6.1719|106.6469|51.25|Station Tangerang, Indonesia|2006-01-01T00:00:00|2599-12-31T23:59:59
AU|WC3|-19.958742|134.371933|382.1|Warramunga Array, Australia|1999-07-01T00:00:00|2599-12-31T23:59:59
S1|AUAPY|-26.2844|132.1353|670.0|Ernabella Anangu School|2019-08-07T01:46:00|2599-12-31T23:59:59
AU|TWOA|-35.0313|138.5793|168.0|Flinders University, Adelaide Urban Monitoring Site.|2009-06-27T00:00:00|2599-12-31T23:59:59
XB|ALIN|-41.6525|172.878601|679.0|-|2001-06-03T00:00:00|2001-12-21T00:00:00
AU|WR4|-19.950317|134.406616|374.4|Warramunga Array, Australia|1999-07-01T00:00:00|2599-12-31T23:59:59
XU|QRZA|-40.825298|172.529907|294.0|Quartz Hills|1996-01-01T00:00:00|1997-12-31T23:59:59
